     2.11           OBSERVATION DATA    M (MIXED)           RINEX VERSION / TYPE
RTKCONV 2.4.3 b29                       20171219 092708 UTC PGM / RUN BY / DATE 
log: G:\RTKDATA\1219test\20171219b.log                      COMMENT             
format: RTCM 3                                              COMMENT             
                                                            MARKER NAME         
                                                            MARKER NUMBER       
                                                            OBSERVER / AGENCY   
                                                            REC # / TYPE / VERS 
                                                            ANT # / TYPE        
        0.0000        0.0000        0.0000                  APPROX POSITION XYZ 
        0.0000        0.0000        0.0000                  ANTENNA: DELTA H/E/N
     1     1                                                WAVELENGTH FACT L1/2
    10    C1    L1    D1    S1    P1    P2    L2    D2    S2# / TYPES OF OBSERV 
          C2                                                # / TYPES OF OBSERV 
  2017    12    19     9    15   58.0000000     GPS         TIME OF FIRST OBS   
  2017    12    19     9    26   38.0000000     GPS         TIME OF LAST OBS    
                                                            END OF HEADER       
 17 12 19  9 15 58.0000000  0 15G10G12G14G22G25G26G31G32C 1C 2C 3C 6
                                C 7C 9C10
  23111560.809   121452063.413                          44.000                  
  23111572.745    94638015.174                          39.000                  
  23689207.282   124487632.460                          43.000                  
  23689215.967    97003387.094                          33.000                  
  20573410.675   108114012.194                          45.000                  
  20573418.930    84244724.624                          47.000                  
  23453606.502   123249538.563                          42.000                  
  23453612.666    96038639.371                          35.000                  
  21177132.055   111286589.995                          46.000                  
  21177143.331    86716876.865                          45.000                  
  23386809.110   122898514.229                          43.000                  
  23386821.493    95765136.642                          37.000                  
  20703799.631   108799227.597                          50.000                  
  20703807.547    84778664.947                          49.000                  
  20513314.006   107798195.369                          50.000                  
  20513325.192    83998641.925                          51.000                  
                 197604787.102                          44.000                  
                 197604787.102                          44.000    37947921.617  
                 200176901.990                          41.000                  
                 200176901.990                          41.000    38441869.676  
                 195597196.325                          44.000                  
                 195597196.325                          44.000    37562385.063  
                 189781254.321                          47.000                  
                 189781254.321                          47.000    36445494.649  
                 189090512.993                          46.000                  
                 189090512.993                          46.000    36312844.618  
                 187311941.440                          47.000                  
                 187311941.440                          47.000    35971288.876  
                 195423572.805                          45.000                  
                 195423572.805                          45.000    37529042.253  
 17 12 19  9 15 59.0000000  0 15G10G12G14G22G25G26G31G32C 1C 2C 3C 6
                                C 7C 9C10
  23112244.103   121455652.364                          43.000                  
  23112255.735    94640811.754                          39.000                  
  23689850.835   124491012.681                          43.000                  
  23689859.144    97006021.043                          34.000                  
  20573244.761   108113138.902                          46.000                  
  20573252.766    84244044.139                          47.000                  
  23453234.719   123247584.886                          42.000                  
  23453240.812    96037117.025                          35.000                  
  21177438.259   111288198.554                          46.000                  
  21177449.534    86718130.290                          45.000                  
  23386122.171   122894906.248                          43.000                  
  23386134.894    95762325.213                          37.000                  
  20703617.153   108798268.056                          50.000                  
  20703624.979    84777917.248                          49.000                  
  20513423.132   107798768.834                          50.000                  
  20513434.354    83999088.780                          51.000                  
                 197604740.348                          44.000                  
                 197604740.348                          44.000    37947913.040  
                 200176931.740                          41.000                  
                 200176931.740                          41.000    38441875.323  
                 195597166.378                          45.000                  
                 195597166.378                          45.000    37562379.274  
                 189781751.443                          47.000                  
                 189781751.443                          47.000    36445590.319  
                 189090167.565                          46.000                  
                 189090167.565                          46.000    36312777.984  
                 187311884.387                          47.000                  
                 187311884.387                          47.000    35971277.976  
                 195422860.374                          45.000                  
                 195422860.374                          45.000    37528905.215  
 17 12 19  9 16  0.0000000  0 15G10G12G14G22G25G26G31G32C 1C 2C 3C 6
                                C 7C 9C10
  23112927.753   121459245.801                          43.000                  
  23112939.565    94643611.826                          39.000                  
  23690494.620   124494397.494                          43.000                  
  23690503.251    97008658.562                          34.000                  
  20573079.401   108112270.285                          46.000                  
  20573087.478    84243367.290                          47.000                  
  23452863.615   123245636.022                          41.000                  
  23452869.869    96035598.419                          35.000                  
  21177745.249   111289812.022                          47.000                  
  21177756.560    86719387.538                          45.000                  
  23385436.519   122891302.807                          43.000                  
  23385449.295    95759517.339                          37.000                  
  20703435.496   108797313.178                          50.000                  
  20703443.305    84777173.192                          49.000                  
  20513533.062   107799347.055                          50.000                  
  20513544.391    83999539.344                          51.000                  
                 197604697.863                          44.000                  
                 197604697.863                          44.000    37947904.767  
                 200176965.749                          41.000                  
                 200176965.749                          41.000    38441881.827  
                 195597140.696                          44.000                  
                 195597140.696                          44.000    37562374.414  
                 189782252.949                          47.000                  
                 189782252.949                          47.000    36445686.794  
                 189089826.509                          46.000                  
                 189089826.509                          46.000    36312712.494  
                 187311831.674                          46.000                  
                 187311831.674                          46.000    35971267.791  
                 195422152.320                          45.000                  
                 195422152.320                          45.000    37528768.893  
 17 12 19  9 16  1.0000000  0 15G10G12G14G22G25G26G31G32C 1C 2C 3C 6
                                C 7C 9C10
  23113610.886   121462836.712                          43.000                  
  23113622.876    94646409.952                          39.000                  
  23691138.316   124497779.874                          43.000                  
  23691146.929    97011294.183                          34.000                  
  20572913.577   108111399.279                          46.000                  
  20572921.743    84242688.591                          47.000                  
  23452492.725   123243684.910                          41.000                  
  23452498.676    96034078.101                          35.000                  
  21178051.703   111291423.381                          47.000                  
  21178063.174    86720643.142                          45.000                  
  23384750.205   122887696.849                          43.000                  
  23384763.089    95756707.517                          37.000                  
  20703253.196   108796355.929                          50.000                  
  20703261.148    84776427.288                          49.000                  
  20513642.564   107799923.008                          50.000                  
  20513654.035    83999988.146                          51.000                  
                 197604652.667                          44.000                  
                 197604652.667                          44.000    37947895.904  
                 200176997.063                          41.000                  
                 200176997.063                          41.000    38441887.474  
                 195597112.316                          44.000                  
                 195597112.316                          44.000    37562369.071  
                 189782751.873                          47.000                  
                 189782751.873                          47.000    36445782.501  
                 189089482.846                          46.000                  
                 189089482.846                          46.000    36312646.736  
                 187311776.383                          47.000                  
                 187311776.383                          47.000    35971257.141  
                 195421441.638                          45.000                  
                 195421441.638                          45.000    37528632.409  
 17 12 19  9 16  2.0000000  0 15G10G12G14G22G25G26G31G32C 1C 2C 3C 6
                                C 7C 9C10
  23114294.769   121466430.390                          43.000                  
  23114306.688    94649210.212                          39.000                  
  23691782.459   124501165.133                          43.000                  
  23691791.286    97013932.054                          34.000                  
  20572748.252   108110531.228                          46.000                  
  20572756.544    84242012.176                          47.000                  
  23452122.211   123241736.877                          42.000                  
  23452127.911    96032560.112                          34.000                  
  21178358.960   111293037.958                          47.000                  
  21178370.343    86721901.254                          45.000                  
  23384064.785   122884093.677                          43.000                  
  23384077.365    95753899.837                          37.000                  
  20703071.540   108795401.614                          50.000                  
  20703079.527    84775683.655                          49.000                  
  20513752.976   107800502.016                          50.000                  
  20513764.162    84000439.309                          51.000                  
                 197604610.040                          44.000                  
                 197604610.040                          44.000    37947887.612  
                 200177030.935                          42.000                  
                 200177030.935                          42.000    38441893.978  
                 195597086.507                          44.000                  
                 195597086.507                          44.000    37562364.067  
                 189783253.493                          47.000                  
                 189783253.493                          47.000    36445878.583  
                 189089141.837                          46.000                  
                 189089141.837                          46.000    36312581.228  
                 187311723.747                          47.000                  
                 187311723.747                          47.000    35971246.991  
                 195420733.639                          45.000                  
                 195420733.639                          45.000    37528496.390  
 17 12 19  9 16  3.0000000  0 15G10G12G14G22G25G26G31G32C 1C 2C 3C 6
                                C 7C 9C10
  23114978.438   121470022.320                          43.000                  
  23114990.196    94652009.115                          38.000                  
  23692426.369   124504548.754                          43.000                  
  23692435.125    97016568.640                          34.000                  
  20572582.589   108109661.589                          46.000                  
  20572591.041    84241334.543                          46.000                  
  23451750.947   123239787.411                          41.000                  
  23451757.040    96031041.073                          34.000                  
  21178666.093   111294651.215                          46.000                  
  21178677.351    86723158.345                          44.000                  
  23383378.454   122880488.816                          43.000                  
  23383391.445    95751090.873                          36.000                  
  20702889.687   108794445.744                          50.000                  
  20702897.656    84774938.830                          48.000                  
  20513862.835   107801079.554                          50.000                  
  20513874.057    84000889.345                          51.000                  
                 197604565.498                          44.000                  
                 197604565.498                          44.000    37947878.946  
                 200177062.909                          41.000                  
                 200177062.909                          41.000    38441900.196  
                 195597058.793                          44.000                  
                 195597058.793                          44.000    37562358.671  
                 189783753.339                          47.000                  
                 189783753.339                          47.000    36445974.503  
                 189088799.013                          46.000                  
                 189088799.013                          46.000    36312515.417  
                 187311669.334                          47.000                  
                 187311669.334                          47.000    35971236.520  
                 195420023.823                          45.000                  
                 195420023.823                          45.000    37528360.335  
 17 12 19  9 16  4.0000000  0 15G10G12G14G22G25G26G31G32C 1C 2C 3C 6
                                C 7C 9C10
  23115661.964   121473614.897                          43.000                  
  23115673.865    94654808.538                          39.000                  
  23693070.922   124507933.124                          43.000                  
  23693079.178    97019205.793                          34.000                  
  20572417.425   108108792.770                          46.000                  
  20572425.717    84240657.545                          47.000                  
  23451379.861   123237838.882                          42.000                  
  23451386.240    96029522.734                          35.000                  
  21178973.333   111296265.523                          46.000                  
  21178984.501    86724416.247                          45.000                  
  23382692.784   122876884.633                          43.000                  
  23382705.524    95748282.411                          37.000                  
  20702707.941   108793490.660                          50.000                  
  20702715.911    84774194.606                          48.000                  
  20513972.908   107801657.998                          50.000                  
  20513984.148    84001340.077                          51.000                  
                 197604521.408                          44.000                  
                 197604521.408                          44.000    37947870.405  
                 200177095.354                          42.000                  
                 200177095.354                          42.000    38441906.647  
                 195597031.521                          44.000                  
                 195597031.521                          44.000    37562353.435  
                 189784253.758                          47.000                  
                 189784253.758                          47.000    36446070.567  
                 189088456.751                          46.000                  
                 189088456.751                          46.000    36312449.784  
                 187311615.476                          47.000                  
                 187311615.476                          47.000    35971226.281  
                 195419314.565                          45.000                  
                 195419314.565                          45.000    37528224.352  
 17 12 19  9 16  5.0000000  0 15G10G12G14G22G25G26G31G32C 1C 2C 3C 6
                                C 7C 9C10
  23116345.812   121477208.009                          43.000                  
  23116357.641    94657608.370                          39.000                  
  23693714.868   124511318.131                          43.000                  
  23693723.338    97021843.488                          34.000                  
  20572252.333   108107924.642                          46.000                  
  20572260.482    84239981.082                          47.000                  
  23451009.400   123235891.183                          42.000                  
  23451015.743    96028005.060                          35.000                  
  21179280.502   111297880.799                          46.000                  
  21179291.938    86725674.903                          45.000                  
  23382007.221   122873280.992                          43.000                  
  23382019.765    95745474.366                          37.000                  
  20702526.302   108792536.275                          50.000                  
  20702534.308    84773450.941                          49.000                  
  20514083.071   107802237.249                          50.000                  
  20514094.382    84001791.453                          51.000                  
                 197604477.660                          44.000                  
                 197604477.660                          44.000    37947862.042  
                 200177128.087                          42.000                  
                 200177128.087                          42.000    38441913.098  
                 195597004.575                          44.000                  
                 195597004.575                          44.000    37562348.057  
                 189784754.633                          47.000                  
                 189784754.633                          47.000    36446166.863  
                 189088114.893                          46.000                  
                 189088114.893                          46.000    36312384.097  
                 187311562.037                          47.000                  
                 187311562.037                          47.000    35971216.024  
                 195418605.726                          45.000                  
                 195418605.726                          45.000    37528088.244  
 17 12 19  9 16  6.0000000  0 15G10G12G14G22G25G26G31G32C 1C 2C 3C 6
                                C 7C 9C10
  23117029.516   121480800.288                          43.000                  
  23117041.220    94660407.518                          39.000                  
  23694358.528   124514702.389                          43.000                  
  23694367.391    97024480.561                          34.000                  
  20572087.063   108107055.849                          46.000                  
  20572095.158    84239304.091                          47.000                  
  23450638.761   123233942.949                          42.000                  
  23450645.051    96026486.940                          35.000                  
  21179587.831   111299495.658                          46.000                  
  21179599.196    86726933.233                          45.000                  
  23381321.336   122869676.536                          43.000                  
  23381333.827    95742665.708                          37.000                  
  20702344.664   108791581.223                          50.000                  
  20702352.544    84772706.736                          49.000                  
  20514193.305   107802815.922                          50.000                  
  20514204.491    84002242.358                          51.000                  
                 197604432.901                          44.000                  
                 197604432.901                          44.000    37947853.679  
                 200177159.834                          41.000                  
                 200177159.834                          41.000    38441919.298  
                 195596976.628                          44.000                  
                 195596976.628                          44.000    37562342.785  
                 189785254.633                          47.000                  
                 189785254.633                          47.000    36446262.749  
                 189087772.140                          46.000                  
                 189087772.140                          46.000    36312318.054  
                 187311507.696                          47.000                  
                 187311507.696                          47.000    35971205.856  
                 195417895.982                          45.000                  
                 195417895.982                          45.000    37527951.617  
 17 12 19  9 16  7.0000000  0 15G10G12G14G22G25G26G31G32C 1C 2C 3C 6
                                C 7C 9C10
  23117713.739   121484395.122                          43.000                  
  23117725.336    94663208.697                          39.000                  
  23695003.189   124518089.332                          43.000                  
  23695011.981    97027119.733                          33.000                  
  20571922.203   108106189.782                          46.000                  
  20571930.352    84238629.241                          46.000                  
  23450268.425   123231997.577                          42.000                  
  23450274.930    96024971.073                          35.000                  
  21179895.893   111301113.513                          46.000                  
  21179907.097    86728193.906                          45.000                  
  23380635.898   122866074.697                          43.000                  
  23380648.460    95739859.080                          37.000                  
  20702163.490   108790628.898                          50.000                  
  20702171.334    84771964.669                          48.000                  
  20514303.807   107803397.445                          50.000                  
  20514315.154    84002695.497                          51.000                  
                 197604390.497                          44.000                  
                 197604390.497                          44.000    37947845.352  
                 200177193.913                          41.000                  
                 200177193.913                          41.000    38441925.803  
                 195596951.037                          45.000                  
                 195596951.037                          45.000    37562337.943  
                 189785757.110                          47.000                  
                 189785757.110                          47.000    36446359.116  
                 189087431.829                          46.000                  
                 189087431.829                          46.000    36312252.921  
                 187311455.816                          47.000                  
                 187311455.816                          47.000    35971195.671  
                 195417188.658                          45.000                  
                 195417188.658                          45.000    37527816.081  
 17 12 19  9 16  8.0000000  0 15G10G12G14G22G25G26G31G32C 1C 2C 3C 6
                                C 7C 9C10
  23118397.068   121487986.086                          43.000                  
  23118408.701    94666006.860                          39.000                  
  23695646.849   124521472.508                          42.000                  
  23695655.855    97029755.985                          33.000                  
  20571756.736   108105320.032                          45.000                  
  20571764.831    84237951.513                          47.000                  
  23449897.446   123230048.631                          41.000                  
  23449904.040    96023452.407                          35.000                  
  21180203.133   111302727.909                          46.000                  
  21180214.319    86729451.872                          45.000                  
  23379949.478   122862469.005                          43.000                  
  23379962.290    95737049.459                          37.000                  
  20701981.512   108789672.875                          50.000                  
  20701989.410    84771219.709                          49.000                  
  20514413.826   107803975.367                          50.000                  
  20514425.120    84003145.823                          51.000                  
                 197604344.066                          44.000                  
                 197604344.066                          44.000    37947836.829  
                 200177223.988                          41.000                  
                 200177223.988                          41.000    38441931.342  
                 195596921.424                          44.000                  
                 195596921.424                          44.000    37562332.386  
                 189786255.689                          47.000                  
                 189786255.689                          47.000    36446454.948  
                 189087087.595                          46.000                  
                 189087087.595                          46.000    36312186.609  
                 187311400.024                          46.000                  
                 187311400.024                          46.000    35971184.735  
                 195416477.426                          44.000                  
                 195416477.426                          44.000    37527679.222  
 17 12 19  9 16  9.0000000  0 15G10G12G14G22G25G26G31G32C 1C 2C 3C 6
                                C 7C 9C10
  23119080.916   121491580.756                          43.000                  
  23119092.709    94668807.899                          39.000                  
  23696291.331   124524859.489                          42.000                  
  23696300.319    97032395.182                          34.000                  
  20571591.698   108104454.147                          45.000                  
  20571600.061    84237276.804                          47.000                  
  23449527.361   123228103.714                          41.000                  
  23449533.955    96021936.919                          35.000                  
  21180511.016   111304346.460                          46.000                  
  21180522.309    86730713.097                          45.000                  
  23379264.040   122858867.058                          43.000                  
  23379276.995    95734242.743                          37.000                  
  20701800.284   108788720.726                          50.000                  
  20701808.236    84770477.786                          49.000                  
  20514524.471   107804557.277                          50.000                  
  20514535.836    84003599.267                          51.000                  
                 197604301.127                          44.000                  
                 197604301.127                          44.000    37947828.377  
                 200177257.541                          41.000                  
                 200177257.541                          41.000    38441937.239  
                 195596895.280                          44.000                  
                 195596895.280                          44.000    37562327.257  
                 189786757.875                          47.000                  
                 189786757.875                          47.000    36446551.530  
                 189086746.955                          46.000                  
                 189086746.955                          46.000    36312121.333  
                 187311347.830                          46.000                  
                 187311347.830                          46.000    35971174.800  
                 195415769.776                          44.000                  
                 195415769.776                          44.000    37527543.560  
 17 12 19  9 16 10.0000000  0 15G10G12G14G22G25G26G31G32C 1C 2C 3C 6
                                C 7C 9C10
  23119764.513   121495173.603                          43.000                  
  23119776.468    94671607.516                          39.000                  
  23696935.831   124528244.739                          42.000                  
  23696944.337    97035033.035                          33.000                  
  20571426.856   108103586.597                          45.000                  
  20571434.951    84236600.781                          47.000                  
  23449156.793   123226157.247                          42.000                  
  23449163.458    96020420.171                          35.000                  
  21180818.810   111305963.581                          46.000                  
  21180830.014    86731973.171                          45.000                  
  23378578.495   122855263.288                          43.000                  
  23378591.200    95731434.619                          36.000                  
  20701618.788   108787766.907                          50.000                  
  20701626.722    84769734.546                          49.000                  
  20514634.991   107805137.611                          50.000                  
  20514646.267    84004051.466                          51.000                  
                 197604256.193                          44.000                  
                 197604256.193                          44.000    37947819.782  
                 200177289.128                          41.000                  
                 200177289.128                          41.000    38441943.582  
                 195596867.159                          44.000                  
                 195596867.159                          44.000    37562321.718  
                 189787258.195                          47.000                  
                 189787258.195                          47.000    36446647.594  
                 189086404.420                          46.000                  
                 189086404.420                          46.000    36312055.558  
                 187311293.734                          47.000                  
                 187311293.734                          47.000    35971164.347  
                 195415060.242                          44.000                  
                 195415060.242                          44.000    37527407.237  
 17 12 19  9 16 11.0000000  0 15G10G12G14G22G25G26G31G32C 1C 2C 3C 6
                                C 7C 9C10
  23120448.486   121498767.358                          43.000                  
  23120460.422    94674407.851                          39.000                  
  23697579.759   124531631.005                          42.000                  
  23697588.890    97037671.701                          34.000                  
  20571261.907   108102720.128                          45.000                  
  20571270.073    84235925.624                          47.000                  
  23448786.636   123224212.002                          42.000                  
  23448793.337    96018904.390                          35.000                  
  21181126.818   111307582.050                          46.000                  
  21181138.094    86733234.327                          45.000                  
  23377892.664   122851660.472                          43.000                  
  23377905.655    95728627.240                          37.000                  
  20701437.436   108786814.171                          50.000                  
  20701445.477    84768992.159                          49.000                  
  20514745.565   107805719.140                          50.000                  
  20514756.929    84004504.614                          51.000                  
                 197604211.986                          44.000                  
                 197604211.986                          44.000    37947811.026  
                 200177321.401                          41.000                  
                 200177321.401                          41.000    38441949.962  
                 195596839.748                          44.000                  
                 195596839.748                          44.000    37562316.250  
                 189787759.385                          47.000                  
                 189787759.385                          47.000    36446743.836  
                 189086062.666                          46.000                  
                 189086062.666                          46.000    36311989.925  
                 187311240.463                          46.000                  
                 187311240.463                          46.000    35971154.412  
                 195414351.519                          44.000                  
                 195414351.519                          44.000    37527271.200  
 17 12 19  9 16 12.0000000  0 15G10G12G14G22G25G26G31G32C 1C 2C 3C 6
                                C 7C 9C10
  23121131.958   121502362.195                          43.000                  
  23121144.448    94677209.020                          39.000                  
  23698224.206   124535018.470                          42.000                  
  23698233.551    97040311.267                          33.000                  
  20571097.101   108101854.938                          46.000                  
  20571105.410    84235251.436                          47.000                  
  23448417.498   123222268.161                          42.000                  
  23448423.359    96017389.712                          35.000                  
  21181434.952   111309202.033                          46.000                  
  21181446.299    86734496.637                          45.000                  
  23377207.297   122848058.806                          43.000                  
  23377220.306    95725820.724                          37.000                  
  20701256.422   108785862.705                          50.000                  
  20701264.374    84768250.750                          49.000                  
  20514856.674   107806302.047                          50.000                  
  20514867.842    84004958.819                          51.000                  
                 197604168.678                          44.000                  
                 197604168.678                          44.000    37947802.788  
                 200177354.605                          41.000                  
                 200177354.605                          41.000    38441956.269  
                 195596813.243                          44.000                  
                 195596813.243                          44.000    37562310.925  
                 189788261.592                          47.000                  
                 189788261.592                          47.000    36446840.168  
                 189085721.928                          46.000                  
                 189085721.928                          46.000    36311924.238  
                 187311188.222                          47.000                  
                 187311188.222                          47.000    35971144.298  
                 195413643.791                          45.000                  
                 195413643.791                          45.000    37527135.146  
 17 12 19  9 16 13.0000000  0 15G10G12G14G22G25G26G31G32C 1C 2C 3C 6
                                C 7C 9C10
  23121815.448   121505955.004                          43.000                  
  23121828.171    94680008.610                          38.000                  
  23698868.563   124538403.987                          42.000                  
  23698877.676    97042949.353                          33.000                  
  20570932.224   108100987.850                          46.000                  
  20570940.372    84234575.796                          46.000                  
  23448047.055   123220322.578                          42.000                  
  23448053.024    96015873.680                          34.000                  
  21181742.960   111310820.396                          47.000                  
  21181754.307    86735757.720                          45.000                  
  23376521.609   122844455.092                          43.000                  
  23376534.582    95723012.651                          37.000                  
  20701074.945   108784909.344                          50.000                  
  20701082.932    84767507.883                          48.000                  
  20514966.998   107806883.177                          50.000                  
  20514978.434    84005411.658                          51.000                  
                 197604123.151                          44.000                  
                 197604123.151                          44.000    37947793.943  
                 200177385.564                          41.000                  
                 200177385.564                          41.000    38441962.131  
                 195596784.523                          44.000                  
                 195596784.523                          44.000    37562305.671  
                 189788761.693                          47.000                  
                 189788761.693                          47.000    36446936.286  
                 189085379.073                          46.000                  
                 189085379.073                          46.000    36311858.266  
                 187311133.853                          46.000                  
                 187311133.853                          46.000    35971133.969  
                 195412933.943                          44.000                  
                 195412933.943                          44.000    37526999.109  
 17 12 19  9 16 14.0000000  0 15G10G12G14G22G25G26G31G32C 1C 2C 3C 6
                                C 7C 9C10
  23122500.189   121509551.288                          43.000                  
  23122512.554    94682810.893                          39.000                  
  23699513.545   124541793.090                          42.000                  
  23699522.337    97045590.182                          33.000                  
  20570767.954   108100124.424                          45.000                  
  20570776.013    84233902.988                          47.000                  
  23447677.059   123218380.760                          42.000                  
  23447683.439    96014360.572                          35.000                  
  21182051.773   111312442.679                          47.000                  
  21182062.923    86737021.821                          45.000                  
  23375836.350   122840854.900                          43.000                  
  23375849.466    95720207.295                          37.000                  
  20700894.307   108783959.642                          50.000                  
  20700902.241    84766767.844                          49.000                  
  20515078.340   107807468.053                          50.000                  
  20515089.722    84005867.399                          51.000                  
                 197604080.901                          44.000                  
                 197604080.901                          44.000    37947786.045  
                 200177419.794                          41.000                  
                 200177419.794                          41.000    38441968.545  
                 195596759.069                          44.000                  
                 195596759.069                          44.000    37562300.918  
                 189789265.180                          47.000                  
                 189789265.180                          47.000    36447032.904  
                 189085039.570                          46.000                  
                 189085039.570                          46.000    36311792.972  
                 187311082.845                          47.000                  
                 187311082.845                          47.000    35971124.320  
                 195412227.447                          45.000                  
                 195412227.447                          45.000    37526863.411  
 17 12 19  9 16 15.0000000  0 15G10G12G14G22G25G26G31G32C 1C 2C 3C 6
                                C 7C 9C10
  23123183.679   121513142.865                          43.000                  
  23123196.027    94685609.552                          39.000                  
  23700157.616   124545177.619                          42.000                  
  23700166.461    97048227.491                          33.000                  
  20570602.540   108099256.464                          46.000                  
  20570610.831    84233226.664                          47.000                  
  23447306.867   123216434.551                          42.000                  
  23447313.103    96012844.053                          35.000                  
  21182359.549   111314060.670                          46.000                  
  21182370.788    86738282.595                          45.000                  
  23375150.376   122837250.041                          43.000                  
  23375163.456    95717398.314                          37.000                  
  20700712.757   108783005.394                          50.000                  
  20700720.656    84766024.283                          49.000                  
  20515188.913   107808048.505                          50.000                  
  20515200.206    84006319.702                          51.000                  
                 197604033.792                          44.000                  
                 197604033.792                          44.000    37947777.057  
                 200177449.180                          41.000                  
                 200177449.180                          41.000    38441974.335  
                 195596728.755                          44.000                  
                 195596728.755                          44.000    37562295.182  
                 189789763.956                          47.000                  
                 189789763.956                          47.000    36447128.556  
                 189084695.330                          46.000                  
                 189084695.330                          46.000    36311727.250  
                 187311027.097                          47.000                  
                 187311027.097                          47.000    35971113.366  
                 195411516.221                          45.000                  
                 195411516.221                          45.000    37526726.517  
 17 12 19  9 16 16.0000000  0 15G10G12G14G22G25G26G31G32C 1C 2C 3C 6
                                C 7C 9C10
  23123868.545   121516740.056                          43.000                  
  23123880.535    94688412.539                          39.000                  
  23700802.813   124548567.825                          42.000                  
  23700811.569    97050869.197                          34.000                  
  20570438.485   108098394.267                          46.000                  
  20570446.758    84232554.816                          47.000                  
  23446937.085   123214494.241                          42.000                  
  23446943.804    96011332.121                          35.000                  
  21182668.433   111315684.693                          47.000                  
  21182679.797    86739548.068                          45.000                  
  23374465.993   122833650.808                          43.000                  
  23374478.519    95714593.731                          37.000                  
  20700532.227   108782056.919                          50.000                  
  20700540.125    84765285.205                          49.000                  
  20515300.434   107808634.831                          50.000                  
  20515311.763    84006776.581                          51.000                  
                 197603992.062                          44.000                  
                 197603992.062                          44.000    37947768.819  
                 200177483.934                          41.000                  
                 200177483.934                          41.000    38441980.625  
                 195596703.815                          45.000                  
                 195596703.815                          45.000    37562290.501  
                 189790268.230                          47.000                  
                 189790268.230                          47.000    36447225.424  
                 189084356.555                          46.000                  
                 189084356.555                          46.000    36311662.296  
                 187310976.822                          47.000                  
                 187310976.822                          47.000    35971103.628  
                 195410810.470                          45.000                  
                 195410810.470                          45.000    37526590.855  
 17 12 19  9 16 17.0000000  0 15G10G12G14G22G25G26G31G32C 1C 2C 3C 6
                                C 7C 9C10
  23124552.518   121520335.172                          43.000                  
  23124564.651    94691213.935                          39.000                  
  23701447.241   124551956.083                          42.000                  
  23701456.247    97053509.409                          33.000                  
  20570274.143   108097530.192                          45.000                  
  20570282.327    84231881.515                          47.000                  
  23446568.054   123212552.217                          42.000                  
  23446574.219    96009818.849                          35.000                  
  21182977.245   111317307.076                          46.000                  
  21182988.520    86740812.262                          45.000                  
  23373780.644   122830049.548                          43.000                  
  23373793.260    95711787.544                          37.000                  
  20700351.285   108781106.548                          50.000                  
  20700359.308    84764544.663                          49.000                  
  20515411.650   107809219.370                          50.000                  
  20515422.979    84007232.064                          51.000                  
                 197603948.129                          44.000                  
                 197603948.129                          44.000    37947760.403  
                 200177516.472                          41.000                  
                 200177516.472                          41.000    38441987.147  
                 195596676.648                          44.000                  
                 195596676.648                          44.000    37562285.336  
                 189790770.408                          47.000                  
                 189790770.408                          47.000    36447321.881  
                 189084015.645                          46.000                  
                 189084015.645                          46.000    36311596.681  
                 187310924.444                          47.000                  
                 187310924.444                          47.000    35971093.371  
                 195410102.579                          45.000                  
                 195410102.579                          45.000    37526454.926  
 17 12 19  9 16 18.0000000  0 15G10G12G14G22G25G26G31G32C 1C 2C 3C 6
                                C 7C 9C10
  23125236.687   121523928.985                          43.000                  
  23125248.534    94694014.298                          39.000                  
  23702092.188   124555343.153                          42.000                  
  23702100.997    97056148.693                          33.000                  
  20570109.534   108096664.967                          45.000                  
  20570117.682    84231207.312                          47.000                  
  23446198.326   123210609.128                          42.000                  
  23446204.616    96008304.740                          35.000                  
  21183285.950   111318928.576                          46.000                  
  21183297.083    86742075.766                          45.000                  
  23373094.938   122826447.028                          43.000                  
  23373107.661    95708980.377                          37.000                  
  20700170.290   108780155.038                          50.000                  
  20700178.241    84763803.225                          49.000                  
  20515522.689   107809802.885                          50.000                  
  20515534.017    84007686.747                          51.000                  
                 197603902.701                          44.000                  
                 197603902.701                          44.000    37947751.808  
                 200177547.513                          42.000                  
                 200177547.513                          42.000    38441993.169  
                 195596648.006                          44.000                  
                 195596648.006                          44.000    37562279.690  
                 189791271.228                          47.000                  
                 189791271.228                          47.000    36447418.249  
                 189083673.353                          46.000                  
                 189083673.353                          46.000    36311531.012  
                 187310870.685                          47.000                  
                 187310870.685                          47.000    35971083.364  
                 195409393.292                          45.000                  
                 195409393.292                          45.000    37526318.746  
 17 12 19  9 16 19.0000000  0 15G10G12G14G22G25G26G31G32C 1C 2C 3C 6
                                C 7C 9C10
  23125920.785   121527525.046                          43.000                  
  23125932.828    94696816.439                          39.000                  
  23702737.313   124558732.540                          42.000                  
  23702745.998    97058789.779                          34.000                  
  20569945.317   108095802.172                          45.000                  
  20569953.519    84230535.013                          47.000                  
  23445828.866   123208668.622                          42.000                  
  23445835.371    96006792.686                          35.000                  
  21183594.906   111320552.770                          46.000                  
  21183606.199    86743341.386                          45.000                  
  23372410.001   122822846.774                          43.000                  
  23372422.634    95706175.012                          37.000                  
  20699989.741   108779205.941                          50.000                  
  20699997.657    84763063.673                          49.000                  
  20515634.281   107810388.912                          50.000                  
  20515645.484    84008143.396                          51.000                  
                 197603859.291                          44.000                  
                 197603859.291                          44.000    37947743.302  
                 200177580.588                          41.000                  
                 200177580.588                          41.000    38441999.530  
                 195596621.412                          44.000                  
                 195596621.412                          44.000    37562274.669  
                 189791774.220                          47.000                  
                 189791774.220                          47.000    36447514.903  
                 189083333.191                          46.000                  
                 189083333.191                          46.000    36311465.522  
                 187310819.081                          47.000                  
                 187310819.081                          47.000    35971073.447  
                 195408686.148                          45.000                  
                 195408686.148                          45.000    37526183.013  
 17 12 19  9 16 20.0000000  0 15G10G12G14G22G25G26G31G32C 1C 2C 3C 6
                                C 7C 9C10
  23126604.561   121531118.836                          43.000                  
  23126616.783    94699616.779                          39.000                  
  23703381.938   124562119.789                          42.000                  
  23703390.390    97061429.159                          33.000                  
  20569780.922   108094937.255                          45.000                  
  20569788.910    84229861.040                          47.000                  
  23445459.460   123206726.122                          42.000                  
  23445465.911    96005279.032                          35.000                  
  21183903.593   111322175.100                          46.000                  
  21183914.958    86744605.528                          45.000                  
  23371724.259   122819244.272                          43.000                  
  23371737.053    95703367.851                          37.000                  
  20699808.728   108778254.734                          50.000                  
  20699816.626    84762322.470                          49.000                  
  20515745.283   107810972.926                          50.000                  
  20515756.630    84008598.469                          51.000                  
                 197603813.453                          44.000                  
                 197603813.453                          44.000    37947734.618  
                 200177611.251                          41.000                  
                 200177611.251                          41.000    38442005.838  
                 195596592.372                          44.000                  
                 195596592.372                          44.000    37562269.004  
                 189792274.889                          47.000                  
                 189792274.889                          47.000    36447611.074  
                 189082990.678                          46.000                  
                 189082990.678                          46.000    36311399.604  
                 187310765.136                          47.000                  
                 187310765.136                          47.000    35971063.012  
                 195407976.675                          45.000                  
                 195407976.675                          45.000    37526046.743  
 17 12 19  9 16 21.0000000  0 15G10G12G14G22G25G26G31G32C 1C 2C 3C 6
                                C 7C 9C10
