     3.03           OBSERVATION DATA    M: Mixed            RINEX VERSION / TYPE
RTKCONV 2.4.3 b29                       20171222 135701 UTC PGM / RUN BY / DATE 
log: G:\RTKDATA\1219test\20171219r.log                      COMMENT             
format: u-blox                                              COMMENT             
                                                            MARKER NAME         
                                                            MARKER NUMBER       
                                                            MARKER TYPE         
                                                            OBSERVER / AGENCY   
                                                            REC # / TYPE / VERS 
                                                            ANT # / TYPE        
 -2163705.0781  4382737.5829  4084042.6900                  APPROX POSITION XYZ 
        0.0000        0.0000        0.0000                  ANTENNA: DELTA H/E/N
G    4 C1C L1C D1C S1C                                      SYS / # / OBS TYPES 
C    4 C1I L1I D1I S1I                                      SYS / # / OBS TYPES 
  2017    12    19     9    15   58.0002584     GPS         TIME OF FIRST OBS   
  2017    12    19     9    26   37.9992584     GPS         TIME OF LAST OBS    
G                                                           SYS / PHASE SHIFT   
C                                                           SYS / PHASE SHIFT   
  0                                                         GLONASS SLOT / FRQ #
 C1C    0.000 C1P    0.000 C2C    0.000 C2P    0.000        GLONASS COD/PHS/BIS 
                                                            END OF HEADER       
> 2017 12 19  9 15 58.0002584  0 23                     
G29  23981468.352   126023423.312        2946.863          39.000  
G10  23069404.941   121230554.545       -3158.782          40.000  
G12  23647061.523   124266162.018       -2949.942          39.000  
G14  20531258.652   107892483.018        1303.370          44.000  
G25  21134984.472   111065066.177       -1178.174          44.000  
G31  20661643.957   108577661.654        1389.644          47.000  
G32  20471163.644   107576675.688        -143.416          48.000  
C20                                     -2760.585          39.000  
G 3  24536131.952   128938249.193        3362.306          38.000  
C 9  35929127.473   187092408.010         483.081          42.000  
C 6  36403334.269   189561723.423         -71.060          42.000  
C 7  36270681.911   188870959.579         771.758          42.000  
C 3  37520220.623   195377633.755         456.047          38.000  
G26  23344650.079   122677036.142        4038.115          38.000  
C 1  37905762.462   197385249.804         472.886          37.000  
C10  37486875.552   195204008.950        1138.666          38.000  
C 2  38399703.055   199957329.6592        396.408          36.000  
C 5  40039596.743   208496686.7092        391.345          32.000  
G 1  25503210.184   134020298.001       -1370.155          34.000  
G22  23411450.490   123027996.490        2383.882          40.000  
G 4  21896584.584   115067401.550        3769.766          43.000  
C 4  39079976.463   203499693.784         449.335          35.000  
C19  23617893.083   122984562.095        -393.792          45.000  
> 2017 12 19  9 15 59.0002584  0 23                     
G29  23980907.738   126020476.591        2946.259          39.000  
G10  23070006.058   121233713.608       -3159.111          40.000  
G12  23647623.115   124269112.345       -2950.312          39.000  
G14  20531010.710   107891179.839        1303.130          44.000  
G25  21135208.821   111066244.853       -1179.012          44.000  
G31  20661379.525   108576272.239        1389.114          47.000  
G32  20471190.814   107576819.265        -143.795          48.000  
C20                                     -2760.677          41.000  
G 3  24535492.401   128934887.059        3362.078          38.000  
C 9  35929034.612   187091924.964         483.008          44.000  
C 6  36403347.854   189561794.568         -71.348          43.000  
C 7  36270533.462   188870188.187         771.292          43.000  
C 3  37520133.014   195377177.845         456.058          39.000  
G26  23343881.737   122672998.293        4037.600          38.000  
C 1  37905671.730   197384777.055         473.134          39.000  
C10  37486657.162   195202870.539        1138.627          40.000  
C 2  38399626.772   199956933.4312        396.377          37.000  
C 5  40039521.471   208496294.9292        391.045          33.000  
G 1  25503471.152   134021668.557       -1370.589          34.000  
G22  23410997.133   123025612.918        2383.670          40.000  
G 4  21895867.354   115063632.051        3769.252          43.000  
C 4  39079890.346   203499245.055         448.959          36.000  
C19  23617968.599   122984956.201        -394.406          46.000  
> 2017 12 19  9 16  0.0002584  0 23                     
G29  23980346.844   126017530.109        2946.704          39.000  
G10  23070607.174   121236872.871       -3158.983          40.000  
G12  23648184.637   124272062.976       -2950.436          39.000  
G14  20530762.996   107889877.035        1302.896          44.000  
G25  21135433.143   111067424.157       -1179.500          44.000  
G31  20661115.023   108574883.175        1389.194          47.000  
G32  20471217.958   107576963.304        -144.066          48.000  
C20                                     -2760.876          39.000  
G 3  24534852.947   128931525.297        3362.201          38.000  
C 9  35928941.785   187091442.034         482.825          42.000  
C 6  36403361.815   189561865.815         -70.809          41.000  
C 7  36270385.205   188869416.902         771.525          41.000  
C 3  37520045.763   195376721.928         456.235          38.000  
G26  23343113.282   122668960.633        4037.897          38.000  
C 1  37905580.823   197384304.356         472.484          36.000  
C10  37486438.459   195201732.239        1138.802          37.000  
C 2  38399550.532   199956536.2283        396.580          36.000  
C 5  40039446.139   208495903.1203        391.895          32.000  
G 1  25503732.295   134023039.512       -1370.885          34.000  
G22  23410543.549   123023229.880        2383.242          40.000  
G 4  21895150.124   115059862.950        3769.019          43.000  
C 4  39079804.037   203498796.349         448.434          35.000  
C19  23618044.150   122985350.856        -394.638          44.000  
> 2017 12 19  9 16  1.0002584  0 23                     
G29  23979785.951   126014583.806        2946.319          38.000  
G10  23071208.430   121240032.243       -3159.599          40.000  
G12  23648746.045   124275013.808       -2950.656          39.000  
G14  20530514.836   107888574.486        1302.336          44.000  
G25  21135657.518   111068603.976       -1180.104          44.000  
G31  20660850.783   108573494.393        1388.598          47.000  
G32  20471245.591   107577107.713        -144.542          48.000  
C20                                     -2760.967          39.000  
G 3  24534213.422   128928163.832        3361.234          38.000  
C 9  35928849.133   187090959.103         482.831          42.000  
C 6  36403375.408   189561937.134         -71.434          41.000  
C 7  36270237.131   188868645.622         771.184          41.000  
C 3  37519958.503   195376265.937         455.969          37.000  
G26  23342344.809   122664923.143        4037.276          38.000  
C 1  37905490.186   197383831.523         472.858          36.000  
C10  37486219.956   195200593.960        1138.206          38.000  
C 2  38399474.475   199956139.8982        396.385          36.000  
C 5  40039370.928   208495511.2133        391.749          31.000  
G 1  25503993.341   134024410.697       -1371.336          34.000  
G22  23410089.835   123020847.204        2382.714          40.000  
G 4  21894432.912   115056094.123        3768.709          43.000  
C 4  39079717.886   203498347.526         448.303          35.000  
C19  23618120.189   122985745.975        -395.374          44.000  
> 2017 12 19  9 16  2.0002584  0 23                     
G29  23979225.144   126011637.598        2946.259          38.000  
G10  23071810.026   121243191.639       -3160.064          40.000  
G12  23649307.227   124277964.798       -2951.319          39.000  
G14  20530267.209   107887272.149        1302.019          44.000  
G25  21135882.321   111069784.268       -1180.967          44.000  
G31  20660586.578   108572105.803        1388.200          47.000  
G32  20471273.214   107577252.439        -145.235          48.000  
C20                                     -2761.262          39.000  
G 3  24533574.107   128924802.562        3361.058          38.000  
C 9  35928756.481   187090476.140         483.069          42.000  
C 6  36403388.862   189562008.420         -71.565          41.000  
C 7  36270088.743   188867874.266         771.281          41.000  
C 3  37519870.799   195375809.783         456.018          37.000  
G26  23341576.467   122660885.698        4037.167          38.000  
C 1  37905399.454   197383358.561         472.757          37.000  
C10  37486001.418   195199455.628        1137.968          38.000  
C 2  38399398.409   199955743.4832        395.739          36.000  
C 5  40039295.779   208495120.1822        392.188          31.000  
G 1  25504254.196   134025782.110       -1371.943          34.000  
G22  23409636.758   123018464.895        2381.938          40.000  
G 4  21893715.629   115052325.548        3768.026          43.000  
C 4  39079631.655   203497898.557         448.616          35.000  
C19  23618196.167   122986141.479        -395.974          44.000  
> 2017 12 19  9 16  3.0002584  0 23                     
G29  23978664.408   126008691.694        2945.410          39.000  
G10  23072411.108   121246351.211       -3159.841          40.000  
G12  23649868.827   124280916.092       -2952.199          39.000  
G14  20530019.494   107885970.161        1301.658          44.000  
G25  21136106.975   111070965.171       -1181.672          44.000  
G31  20660322.495   108570717.583        1387.630          47.000  
G32  20471301.108   107577397.628        -145.829          48.000  
C20                                     -2761.864          39.000  
G 3  24532934.801   128921441.643        3360.477          38.000  
C 9  35928663.716   187089993.311         482.452          42.000  
C 6  36403402.709   189562079.836         -71.637          41.000  
C 7  36269941.010   188867103.037         770.912          41.000  
C 3  37519783.425   195375353.640         455.839          37.000  
G26  23340808.108   122656848.471        4037.223          38.000  
C 1  37905308.556   197382885.612         472.792          37.000  
C10  37485782.618   195198317.397        1137.643          38.000  
C 2  38399322.248   199955347.0252        395.950          36.000  
C 5  40039220.507   208494728.1683        392.009          31.000  
G 1  25504515.181   134027153.869       -1372.453          33.000  
G22  23409183.549   123016083.079        2381.293          40.000  
G 4  21892998.556   115048557.366        3767.609          43.000  
C 4  39079545.303   203497447.0883        448.958          35.000  
C19  23618272.329   122986537.547        -396.745          44.000  
> 2017 12 19  9 16  4.0002584  0 23                     
G29  23978104.072   126005746.095        2945.227          39.000  
G10  23073012.416   121249511.060       -3159.890          40.000  
G12  23650430.497   124283867.711       -2951.413          39.000  
G14  20529772.042   107884668.610        1301.451          44.000  
G25  21136331.821   111072146.770       -1182.031          44.000  
G31  20660058.281   108569329.779        1387.627          47.000  
G32  20471328.593   107577543.348        -145.924          48.000  
G 3  24532295.495   128918081.166        3360.190          38.000  
C 9  35928570.820   187089510.643         482.739          42.000  
C 6  36403416.050   189562151.462         -71.688          41.000  
C 7  36269792.901   188866331.977         770.742          41.000  
C 3  37519695.686   195374897.579         455.846          37.000  
G26  23340040.272   122652811.571        4036.836          39.000  
C 1  37905217.771   197382412.718         473.156          37.000  
C10  37485563.897   195197179.328        1137.828          38.000  
C 2  38399246.130   199954950.6562        396.209          36.000  
C 5  40039145.123   208494335.2322        392.086          31.000  
G 1  25504776.350   134028526.077       -1372.268          33.000  
G22  23408730.227   123013701.832        2380.828          40.000  
C20                                     -2761.604          39.000  
G 4  21892281.753   115044789.645        3767.585          43.000  
C 4  39079459.125   203496998.1982        448.516          35.000  
C19  23618348.403   122986934.218        -397.024          44.000  
> 2017 12 19  9 16  5.0002584  0 23                     
G29  23977543.318   126002800.765        2945.105          39.000  
G10  23073613.925   121252671.147       -3160.442          40.000  
G12  23650992.612   124286819.689       -2952.248          39.000  
G14  20529524.449   107883367.457        1301.001          44.000  
G25  21136556.876   111073328.995       -1182.510          44.000  
G31  20659794.312   108567942.366        1387.040          47.000  
G32  20471356.487   107577689.558        -146.708          48.000  
G 3  24531656.145   128914721.061        3359.957          38.000  
C 9  35928478.028   187089028.112         482.275          42.000  
C 6  36403429.766   189562223.229         -71.893          41.000  
C 7  36269645.002   188865561.015         770.776          41.000  
C 3  37519608.051   195374441.537         456.022          37.000  
G26  23339272.236   122648774.876        4036.502          39.000  
C 1  37905126.759   197381939.882         472.750          36.000  
C10  37485345.464   195196041.385        1137.987          38.000  
C 2  38399170.161   199954554.2782        396.329          36.000  
C 5  40039069.711   208493942.2993        391.781          32.000  
G 1  25505037.737   134029898.664       -1372.777          33.000  
G22  23408277.342   123011321.073        2380.644          40.000  
C20                                     -2761.589          39.000  
G 4  21891564.890   115041022.336        3767.151          43.000  
C 4  39079372.877   203496549.2982        448.714          35.000  
C19  23618424.704   122987331.462        -397.596          44.000  
> 2017 12 19  9 16  6.0002584  0 23                     
G29  23976982.809   125999855.820        2944.965          38.000  
G10  23074215.303   121255831.496       -3159.970          40.000  
G12  23651554.466   124289772.056       -2952.153          39.000  
G14  20529276.770   107882066.759        1300.911          44.000  
G25  21136781.766   111074511.963       -1183.120          44.000  
G31  20659530.273   108566555.409        1387.160          47.000  
G32  20471384.355   107577836.334        -146.598          48.000  
G 3  24531016.664   128911361.447        3359.707          38.000  
C 9  35928385.568   187088545.780         482.880          42.000  
C 6  36403443.848   189562295.263         -71.954          41.000  
C 7  36269497.233   188864790.293         770.779          41.000  
C 3  37519520.442   195373985.624         455.913          37.000  
G26  23338504.103   122644738.529        4036.753          39.000  
C 1  37905035.896   197381467.149         473.078          36.000  
C10  37485126.909   195194903.682        1137.811          38.000  
C 2  38399094.034   199954157.546         396.901          36.000  
C 5  40038994.292   208493549.4603        392.468          31.000  
G 1  25505298.940   134031271.707       -1372.868          33.000  
G22  23407824.404   123008940.938        2380.027          40.000  
C20                                     -2761.914          39.000  
G 4  21890848.157   115037255.532        3766.932          43.000  
C 4  39079286.621   203496100.5572        449.287          35.000  
C19  23618501.197   122987729.365        -397.813          44.000  
> 2017 12 19  9 16  7.0002584  0 23                     
G29  23976422.692   125996911.114        2944.562          39.000  
G10  23074816.533   121258992.064       -3161.140          40.000  
G12  23652116.633   124292724.699       -2952.906          39.000  
G14  20529029.011   107880766.401        1299.960          44.000  
G25  21137006.961   111075695.530       -1184.327          44.000  
G31  20659266.356   108565168.800        1386.190          47.000  
G32  20471412.223   107577983.568        -147.782          48.000  
G 3  24530377.437   128908002.172        3358.660          38.000  
C 9  35928293.047   187088063.574         481.726          42.000  
C 6  36403457.599   189562367.389         -72.648          41.000  
C 7  36269349.124   188864019.639         770.235          41.000  
C 3  37519433.034   195373529.670         455.513          37.000  
G26  23337736.102   122640702.397        4035.725          39.000  
C 1  37904945.286   197380994.406         472.100          37.000  
C10  37484908.380   195193765.984        1137.797          38.000  
C 2  38399017.969   199953761.305         395.725          36.000  
C 5  40038918.976   208493157.6303        391.595          31.000  
G 1  25505560.301   134032645.141       -1374.573          32.000  
G22  23407371.615   123006561.271        2379.086          40.000  
C20                                     -2762.589          39.000  
G 4  21890131.424   115033489.080        3766.229          43.000  
C 4  39079200.391   203495651.7912        448.872          35.000  
C19  23618577.716   122988127.792        -398.978          44.000  
> 2017 12 19  9 16  8.0002584  0 23                     
G29  23975862.383   125993966.690        2944.147          38.000  
G10  23075417.798   121262152.807       -3160.928          40.000  
G12  23652678.399   124295677.648       -2953.311          39.000  
G14  20528781.785   107879466.441        1299.626          44.000  
G25  21137232.313   111076879.722       -1184.616          44.000  
G31  20659002.709   108563782.575        1385.739          47.000  
G32  20471440.370   107578131.283        -148.152          48.000  
G 3  24529738.262   128904643.265        3358.708          38.000  
C 9  35928200.535   187087581.480         481.659          42.000  
C 6  36403471.655   189562439.670         -72.692          41.000  
C 7  36269201.024   188863249.099         770.451          41.000  
C 3  37519345.285   195373073.775         455.364          37.000  
G26  23336968.231   122636666.516        4035.345          39.000  
C 1  37904854.614   197380521.679         472.084          37.000  
C10  37484689.868   195192628.462        1137.340          38.000  
C 2  38398942.016   199953365.076         396.323          36.000  
C 5  40038843.722   208492765.8902        390.367          31.000  
G 1  25505821.853   134034018.867       -1374.120          32.000  
G22  23406919.034   123004182.127        2378.689          40.000  
C20                                     -2762.592          39.000  
G 4  21889415.058   115029723.071        3765.727          43.000  
C 4  39079114.405   203495203.0792        448.679          35.000  
C19  23618654.506   122988526.799        -399.600          44.000  
> 2017 12 19  9 16  9.0002584  0 23                     
G29  23975302.204   125991022.701        2943.915          38.000  
G10  23076019.429   121265313.936       -3161.156          40.000  
G12  23653240.576   124298631.078       -2953.275          39.000  
G14  20528534.437   107878167.008        1299.471          44.000  
G25  21137457.831   111078064.716       -1185.235          44.000  
G31  20658739.001   108562396.879        1385.547          47.000  
G32  20471468.700   107578279.638        -148.553          48.000  
G 3  24529098.999   128901284.922        3358.235          38.000  
C 9  35928107.944   187087099.673         481.757          42.000  
C 6  36403485.572   189562512.244         -72.810          41.000  
C 7  36269052.994   188862478.863         770.128          41.000  
C 3  37519257.764   195372618.010         456.021          37.000  
G26  23336200.422   122632630.999        4035.382          38.000  
C 1  37904763.725   197380049.126         472.386          37.000  
C10  37484471.505   195191491.209        1137.566          38.000  
C 2  38398865.715   199952969.018         396.199          36.000  
C 5  40038768.468   208492374.2303        391.436          32.000  
G 1  25506083.327   134035393.170       -1374.111          32.000  
G22  23406466.498   123001803.642        2378.486          40.000  
C20                                     -2762.761          39.000  
G 4  21888698.500   115025957.613        3765.458          43.000  
C 4  39079028.288   203494754.5342        448.570          35.000  
C19  23618731.357   122988926.502        -399.723          44.000  
> 2017 12 19  9 16 10.0002584  0 23                     
G29  23974741.983   125988078.961        2943.219          39.000  
G10  23076620.920   121268475.241       -3161.561          40.000  
G12  23653802.420   124301584.796       -2953.872          39.000  
G14  20528287.377   107876867.945        1298.554          44.000  
G25  21137683.331   111079250.313       -1186.152          44.000  
G31  20658475.494   108561011.533        1384.938          47.000  
G32  20471497.170   107578428.449        -149.142          48.000  
G 3  24528459.859   128897926.920        3357.556          38.000  
C 9  35928015.248   187086617.958         481.519          42.000  
C 6  36403499.305   189562584.943         -72.804          41.000  
C 7  36268905.357   188861708.708         769.793          41.000  
C 3  37519170.452   195372162.269         455.695          37.000  
G26  23335432.246   122628595.710        4034.677          38.000  
C 1  37904673.150   197379576.579         472.148          37.000  
C10  37484253.334   195190354.072        1137.164          38.000  
C 2  38398789.571   199952572.995         395.359          36.000  
C 5  40038693.310   208491982.5912        391.759          32.000  
G 1  25506345.020   134036767.851       -1375.059          32.000  
G22  23406014.101   122999425.650        2377.590          40.000  
C20                                     -2763.126          39.000  
G 4  21887982.028   115022192.546        3764.755          43.000  
C 4  39078942.276   203494306.9563        447.998          35.000  
C19  23618807.937   122989326.770        -400.724          45.000  
> 2017 12 19  9 16 11.0002584  0 23                     
G29  23974181.839   125985135.410        2943.414          39.000  
G10  23077222.604   121271636.669       -3161.505          40.000  
G12  23654364.640   124304538.762       -2954.244          39.000  
G14  20528040.430   107875569.159        1298.658          44.000  
G25  21137908.858   111080436.464       -1186.417          44.000  
G31  20658211.734   108559626.488        1384.783          47.000  
G32  20471525.579   107578577.660        -149.451          48.000  
C20                                     -2763.283          39.000  
G 3  24527820.884   128894569.225        3357.388          37.000  
C 9  35927922.649   187086136.318         481.543          42.000  
C 6  36403513.745   189562657.755         -73.010          41.000  
C 7  36268757.510   188860938.563         770.095          41.000  
C 3  37519082.729   195371706.487         455.525          37.000  
G26  23334664.523   122624560.574        4034.927          38.000  
C 1  37904582.251   197379103.973         472.636          37.000  
C10  37484035.040   195189216.957        1136.970          38.000  
C 2  38398713.523   199952176.875         396.498          36.000  
C 5  40038618.135   208491590.9173        392.163          32.000  
G 1  25506606.659   134038142.776       -1374.993          32.000  
G22  23405561.521   122997048.106        2376.828          40.000  
G 4  21887265.872   115018427.807        3764.494          43.000  
C 4  39078856.342   203493858.3592        448.379          35.000  
C19  23618884.962   122989727.511        -401.095          45.000  
> 2017 12 19  9 16 12.0002584  0 23                     
G29  23973621.783   125982192.126        2942.938          39.000  
G10  23077824.366   121274798.303       -3162.250          40.000  
G12  23654926.398   124307492.985       -2954.290          39.000  
G14  20527792.916   107874270.724        1298.168          44.000  
G25  21138134.681   111081623.220       -1187.298          44.000  
G31  20657948.559   108558241.788        1384.379          47.000  
G32  20471553.692   107578727.331        -150.144          48.000  
C20                                     -2763.662          39.000  
G 3  24527181.246   128891211.865        3356.935          37.000  
C 9  35927830.285   187085654.760         481.458          42.000  
C 6  36403527.670   189562730.651         -72.926          41.000  
C 7  36268609.698   188860168.529         770.081          41.000  
C 3  37518995.155   195371250.683         455.655          37.000  
G26  23333896.801   122620525.656        4034.684          39.000  
C 1  37904491.589   197378631.361         472.882          37.000  
C10  37483816.642   195188079.945        1136.840          38.000  
C 2  38398637.650   199951780.797         395.684          36.000  
C 5  40038542.889   208491199.2133        391.721          31.000  
G 1  25506868.605   134039518.087       -1375.630          32.000  
G22  23405109.046   122994670.997        2376.719          40.000  
G 4  21886549.549   115014663.441        3764.111          43.000  
C 4  39078770.121   203493409.7232        448.640          35.000  
C19  23618961.918   122990128.795        -401.681          44.000  
> 2017 12 19  9 16 13.0002584  0 23                     
G29  23973061.989   125979249.208        2942.841          39.000  
G10  23078426.041   121277960.236       -3162.344          40.000  
G12  23655488.740   124310447.644       -2954.756          39.000  
G14  20527545.987   107872972.781        1297.604          44.000  
G25  21138360.923   111082810.722       -1187.977          44.000  
G31  20657684.816   108556857.563        1383.963          47.000  
G32  20471582.205   107578877.592        -150.663          48.000  
C20                                     -2763.822          39.000  
G 3  24526542.254   128887855.002        3356.313          37.000  
C 9  35927737.982   187085173.434         481.195          42.000  
C 6  36403541.683   189562803.803         -73.176          41.000  
C 7  36268461.824   188859398.723         769.582          41.000  
C 3  37518907.677   195370795.025         455.354          37.000  
G26  23333129.183   122616491.082        4034.413          39.000  
C 1  37904400.813   197378158.912         472.070          37.000  
C10  37483598.296   195186943.131        1136.658          38.000  
C 2  38398561.418   199951384.809         395.601          36.000  
C 5  40038467.705                         391.266          31.000  
G 1  25507130.140   134040893.871       -1376.031          32.000  
G22  23404656.867   122992294.528        2376.223          40.000  
G 4  21885833.165   115010899.594        3763.601          43.000  
C 4  39078683.890   203492961.2552        448.149          35.000  
C19  23619038.934   122990530.741        -402.286          45.000  
> 2017 12 19  9 16 14.0002584  0 23                     
G29  23972501.968   125976306.597        2942.334          39.000  
G10  23079027.654   121281122.397       -3162.330          40.000  
G12  23656051.169   124313402.639       -2955.287          39.000  
G14  20527299.040   107871675.227        1297.127          44.000  
G25  21138587.174   111083998.874       -1188.560          44.000  
G31  20657421.527   108555473.739        1383.567          47.000  
G32  20471611.059   107579028.345        -151.176          48.000  
C20                                     -2764.342          39.000  
G 3  24525903.218   128884498.533        3356.252          37.000  
C 9  35927645.609   187084692.255         481.104          42.000  
C 6  36403555.896   189562877.106         -73.091          41.000  
C 7  36268314.039   188858629.055         769.429          41.000  
C 3  37518820.147   195370339.368         455.511          37.000  
G26  23332361.574   122612456.778        4034.046          39.000  
C 1  37904310.019   197377686.490         472.083          37.000  
C10  37483379.976   195185806.462        1136.559          38.000  
C 2  38398485.388   199950988.852         395.833          36.000  
C 5  40038392.503                         391.279          32.000  
G 1  25507391.858   134042270.036       -1376.646          32.000  
G22  23404204.391   122989918.608        2375.399          40.000  
G 4  21885117.235   115007136.185        3762.976          43.000  
C 4  39078597.695   203492512.7922        448.590          35.000  
C19  23619116.134   122990933.275        -402.926          45.000  
> 2017 12 19  9 16 15.0002584  0 23                     
G29  23971942.130   125973364.253        2942.151          39.000  
G10  23079629.225   121284284.729       -3161.967          40.000  
G12  23656613.694   124316357.921       -2955.433          39.000  
G14  20527052.329   107870378.040        1297.163          44.000  
G25  21138813.373   111085187.640       -1188.930          44.000  
G31  20657158.204   108554090.267        1383.528          47.000  
G32  20471640.018   107579179.569        -151.287          48.000  
C20                                     -2764.056          39.000  
G 3  24525264.785   128881142.409        3356.693          37.000  
C 9  35927553.306   187084211.184         481.122          43.000  
C 6  36403569.786   189562950.562         -73.435          43.000  
C 7  36268166.192   188857859.487         769.632          42.000  
C 3  37518732.704   195369883.744         455.640          37.000  
G26  23331593.896   122608422.680        4034.194          39.000  
C 1  37904219.121   197377214.034         472.489          37.000  
C10  37483161.604   195184669.915        1136.372          38.000  
C 2  38398409.523   199950592.902         396.182          36.000  
C 5  40038316.988   208490022.6442        391.210          32.000  
G 1  25507653.786   134043646.581       -1376.784          32.000  
G22  23403752.483   122987543.149        2375.223          40.000  
G 4  21884400.886   115003373.155        3762.974          43.000  
C 4  39078511.570   203492064.3352        448.765          35.000  
C19  23619193.403   122991336.353        -403.333          45.000  
> 2017 12 19  9 16 16.0002584  0 23                     
G29  23971382.196   125970422.110        2941.815          39.000  
G10  23080231.222   121287447.260       -3163.232          40.000  
G12  23657176.149   124319313.443       -2955.967          39.000  
G14  20526805.618   107869081.169        1296.451          44.000  
G25  21139039.763   111086376.972       -1189.544          44.000  
G31  20656895.072   108552707.116        1382.785          47.000  
G32  20471668.776   107579331.209        -152.023          48.000  
C20                                     -2764.774          39.000  
G 3  24524626.159   128877786.644        3355.396          37.000  
C 9  35927460.942   187083730.172         480.872          42.000  
C 6  36403584.104   189563024.097         -73.630          42.000  
C 7  36268018.318   188857089.967         769.374          41.000  
C 3  37518644.895   195369428.050         455.646          37.000  
G26  23330826.042   122604388.771        4033.638          39.000  
C 1  37904128.363   197376741.573         472.363          36.000  
C10  37482943.625   195183533.442        1135.997          38.000  
C 2  38398333.527   199950196.925         396.196          35.000  
C 5  40038241.882   208489632.0583        392.051          32.000  
G 1  25507915.688   134045023.426       -1377.662          32.000  
G22  23403300.784   122985168.156        2374.964          40.000  
G 4  21883684.651   114999610.473        3762.449          43.000  
C 4  39078425.505   203491615.8523        448.287          36.000  
C19  23619270.856   122991739.929        -403.858          44.000  
> 2017 12 19  9 16 17.0002584  0 23                     
G29  23970822.245   125967480.490        2941.266          38.000  
G10  23080833.141   121290610.178       -3163.335          40.000  
G12  23657738.710   124322269.530       -2956.687          39.000  
G14  20526559.046   107867784.908        1295.780          44.000  
G25  21139266.031   111087567.191       -1190.830          44.000  
G31  20656631.853   108551324.571        1382.145          47.000  
G32  20471697.752   107579483.564        -152.792          48.000  
C20                                     -2765.312          39.000  
G 3  24523987.900   128874431.486        3354.769          37.000  
C 9  35927368.665   187083249.546         480.322          42.000  
C 6  36403598.535   189563098.020         -74.357          41.000  
C 7  36267870.533   188856320.790         768.999          41.000  
C 3  37518557.530   195368972.643         455.170          37.000  
G26  23330058.468   122600355.314        4033.181          39.000  
C 1  37904037.578   197376269.378         471.613          36.000  
C10  37482725.279   195182397.270        1135.686          38.000  
C 2  38398257.366   199949801.192         395.927          36.000  
C 5  40038166.567   208489240.7842        391.606          32.000  
G 1  25508177.868   134046400.871       -1377.920          32.000  
G22  23402848.632   122982793.929        2373.508          40.000  
G 4  21882968.816   114995848.434        3761.725          43.000  
C 4  39078339.432   203491167.6232        447.879          35.000  
C19  23619348.143   122992144.314        -404.904          44.000  
> 2017 12 19  9 16 18.0002584  0 23                     
G29  23970262.250   125964539.054        2940.808          38.000  
G10  23081434.912   121293773.205       -3163.040          40.000  
G12  23658301.287   124325225.809       -2956.669          39.000  
G14  20526312.571   107866488.916        1295.799          44.000  
G25  21139492.640   111088757.918       -1191.078          44.000  
G31  20656369.000   108549942.296        1381.998          47.000  
G32  20471726.841   107579636.308        -153.172          48.000  
C20                                     -2765.030          39.000  
G 3  24523349.475   128871076.604        3354.181          37.000  
C 9  35927276.502   187082768.927         480.542          42.000  
C 6  36403612.339   189563171.968         -73.955          41.000  
C 7  36267722.877   188855551.658         769.047          41.000  
C 3  37518470.009   195368517.153         455.313          37.000  
G26  23329291.235   122596322.012        4033.316          39.000  
C 1  37903946.854   197375797.095         471.946          37.000  
C10  37482507.047   195181261.118        1136.558          38.000  
C 2  38398181.431   199949405.411         395.612          36.000  
C 5  40038091.522   208488848.3783        391.449          32.000  
G 1  25508439.936   134047778.553       -1377.261          32.000  
G22  23402396.706   122980420.069        2373.776          40.000  
G 4  21882253.043   114992086.719        3761.365          43.000  
C 4  39078253.394   203490719.3212        448.208          35.000  
C19  23619426.233   122992549.144        -405.099          44.000  
> 2017 12 19  9 16 19.0002584  0 23                     
G29  23969702.386   125961597.930        2940.814          38.000  
G10  23082036.971   121296936.516       -3163.327          40.000  
G12  23658864.013   124328182.445       -2956.598          39.000  
G14  20526065.781   107865193.343        1295.488          44.000  
G25  21139719.414   111089949.353       -1191.778          44.000  
G31  20656105.790   108548560.427        1382.033          47.000  
G32  20471756.088   107579789.558        -153.160          48.000  
C20                                     -2764.922          39.000  
G 3  24522711.268   128867722.138        3354.403          38.000  
C 9  35927184.505   187082288.474         480.866          42.000  
C 6  36403626.901   189563246.118         -73.776          41.000  
C 7  36267575.127   188854782.665         768.862          41.000  
C 3  37518382.653   195368061.720         455.200          37.000  
G26  23328523.687   122592288.992        4033.460          39.000  
C 1  37903856.148   197375324.865         472.350          37.000  
C10  37482288.797   195180125.145        1136.066          38.000  
C 2  38398105.636   199949009.641         395.776          36.000  
C 5  40038016.373   208488457.1052        391.540          32.000  
G 1  25508701.925   134049156.709       -1377.914          32.000  
G22  23401945.269   122978046.795        2373.255          40.000  
G 4  21881537.113   114988325.431        3761.248          43.000  
C 4  39078167.128   203490271.0633        448.377          35.000  
C19  23619504.305   122992954.594        -405.629          44.000  
> 2017 12 19  9 16 20.0002584  0 23                     
G29  23969142.312   125958657.040        2941.064          38.000  
G10  23082639.335   121300100.017       -3163.508          40.000  
G12  23659426.599   124331139.379       -2957.019          39.000  
G14  20525819.306   107863898.151        1295.086          44.000  
G25  21139946.145   111091141.388       -1192.078          44.000  
G31  20655842.946   108547178.932        1381.526          47.000  
G32  20471785.212   107579943.294        -153.660          48.000  
C20                                     -2765.486          39.000  
G 3  24522072.913   128864368.049        3353.906          38.000  
C 9  35927092.132   187081808.147         480.371          42.000  
C 6  36403641.009   189563320.418         -74.247          42.000  
C 7  36267427.585   188854013.753         769.208          41.000  
C 3  37518295.122   195367606.296         455.337          38.000  
G26  23327756.226   122588256.221        4032.758          39.000  
C 1  37903765.581   197374852.624         472.519          37.000  
C10  37482070.521   195178989.284        1136.204          38.000  
C 2  38398029.614   199948613.890         396.342          36.000  
C 5  40037941.302   208488066.7653        391.754          32.000  
G 1  25508964.262   134050535.217       -1378.855          32.000  
G22  23401493.474   122975674.001        2372.785          40.000  
G 4  21880821.253   114984564.564        3760.719          43.000  
C 4  39078080.951   203489822.8492        447.844          35.000  
C19  23619582.090   122993360.587        -406.029          45.000  
> 2017 12 19  9 16 21.0002584  0 23                     
G29  23968582.797   125955716.337        2940.192          38.000  
G10  23083241.385   121303263.572       -3163.950          40.000  
G12  23659989.378   124334096.494       -2957.341          39.000  
G14  20525572.751   107862603.196        1294.313          44.000  
G25  21140173.294   111092333.929       -1193.356          44.000  
G31  20655580.146   108545797.679        1380.703          47.000  
G32  20471814.599   107580097.379        -154.672          48.000  
C20                                     -2765.737          39.000  
G 3  24521434.828   128861014.199        3353.323          38.000  
C 9  35926999.689   187081327.818         479.846          42.000  
C 6  36403655.039   189563394.715         -74.591          41.000  
C 7  36267279.834   188853244.864         768.538          41.000  
C 3  37518207.540   195367150.769         454.871          37.000  
G26  23326988.932   122584223.540        4032.030          39.000  
C 1  37903674.858   197374380.296         472.279          37.000  
C10  37481852.480   195177853.424        1135.396          38.000  
C 2  38397953.435   199948218.064         395.908          36.000  
C 5  40037866.100   208487675.3893        389.936          32.000  
G 1  25509226.653   134051913.956       -1379.575          32.000  
G22  23401042.098   122973301.624        2371.629          40.000  
G 4  21880105.480   114980803.967        3759.994          43.000  
C 4  39077994.563   203489374.5152        447.089          35.000  
C19  23619660.031   122993767.025        -406.985          45.000  
> 2017 12 19  9 16 22.0002584  0 23                     
G29  23968023.195   125952775.946        2940.784          38.000  
G10  23083843.304   121306427.393       -3163.351          40.000  
G12  23660552.234   124337053.982       -2957.593          39.000  
G14  20525326.389   107861308.680        1294.472          44.000  
G25  21140400.278   111093527.165       -1193.575          44.000  
G31  20655317.345   108544416.873        1380.615          47.000  
G32  20471844.046   107580252.019        -155.068          48.000  
C20                                     -2765.825          39.000  
G 3  24520796.944   128857660.805        3353.491          38.000  
C 9  35926907.552   187080847.676         480.005          42.000  
C 6  36403669.715   189563469.246         -74.844          41.000  
C 7  36267132.353   188852476.163         768.633          41.000  
C 3  37518120.114   195366695.298         455.718          37.000  
G26  23326221.811   122580191.149        4032.411          39.000  
C 1  37903584.273   197373908.091         472.201          37.000  
C10  37481634.571   195176717.739        1135.458          38.000  
C 2  38397877.492   199947822.344         395.789          36.000  
C 5  40037790.977   208487284.0103        391.167          31.000  
G 1  25509488.929   134053293.150       -1380.023          32.000  
G22  23400590.835   122970929.795        2371.520          40.000  
G 4  21879389.951   114977043.857        3759.629          43.000  
C 4  39077908.630   203488926.2312        448.177          35.000  
C19  23619738.382   122994174.097        -407.355          44.000  
> 2017 12 19  9 16 23.0002584  0 23                     
G29  23967463.540   125949835.826        2940.313          38.000  
G10  23084445.424   121309591.432       -3163.885          40.000  
G12  23661115.021   124340011.755       -2957.912          39.000  
G14  20525080.018   107860014.519        1294.036          44.000  
G25  21140627.314   111094720.995       -1194.045          44.000  
G31  20655054.606   108543036.403        1380.265          47.000  
G32  20471873.580   107580407.084        -155.115          48.000  
C20                                     -2766.172          39.000  
G 3  24520159.008   128854307.771        3353.441          38.000  
C 9  35926815.424   187080367.632         480.157          42.000  
C 6  36403683.710   189563543.858         -74.467          41.000  
C 7  36266984.733   188851707.525         768.823          41.000  
C 3  37518032.689   195366239.836         455.821          37.000  
G26  23325454.420   122576158.989        4032.029          39.000  
C 1  37903493.637   197373435.832         472.415          37.000  
C10  37481416.513   195175582.116        1135.891          38.000  
C 2  38397801.366   199947426.598         395.338          36.000  
C 5  40037715.889   208486892.6792        391.293          32.000  
G 1  25509751.433   134054672.674       -1379.571          32.000  
G22  23400139.677   122968558.437        2371.221          40.000  
G 4  21878674.501   114973284.100        3759.661          43.000  
C 4  39077822.583   203488477.9692        448.060          35.000  
C19  23619816.673   122994581.684        -407.833          45.000  
> 2017 12 19  9 16 24.0002584  0 23                     
G29  23966903.990   125946895.869        2939.789          38.000  
G10  23085047.535   121312755.524       -3164.265          40.000  
G12  23661678.018   124342969.701       -2958.226          39.000  
G14  20524833.866   107858720.599        1293.748          44.000  
G25  21140854.708   111095915.336       -1194.637          44.000  
G31  20654791.893   108541656.186        1379.898          47.000  
G32  20471903.228   107580562.519        -155.802          48.000  
C20                                     -2766.251          39.000  
G 3  24519521.360   128850954.997        3352.268          38.000  
C 9  35926723.042   187079887.582         480.182          42.000  
C 6  36403698.229   189563618.506         -74.756          41.000  
C 7  36266837.043   188850938.892         768.351          41.000  
C 3  37517945.193   195365784.308         455.304          37.000  
G26  23324687.030   122572126.938        4031.618          39.000  
C 1  37903402.957   197372963.510         471.772          37.000  
C10  37481198.429   195174446.489        1135.661          38.000  
C 2  38397725.501   199947032.2173        395.892          36.000  
C 5  40037640.626   208486501.2312        391.446          32.000  
G 1  25510013.745   134056052.445       -1380.243          32.000  
G22  23399688.493   122966187.476        2370.493          40.000  
G 4  21877958.972   114969524.634        3759.139          43.000  
C 4  39077736.387   203488029.6172        447.986          35.000  
C19  23619895.033   122994989.718        -408.346          45.000  
> 2017 12 19  9 16 25.0002584  0 23                     
G29  23966344.693   125943956.433        2939.227          38.000  
G10  23085649.628   121315920.091       -3164.988          40.000  
G12  23662241.101   124345928.213       -2958.909          39.000  
G14  20524587.722   107857427.329        1292.633          44.000  
G25  21141082.311   111097110.570       -1195.801          44.000  
G31  20654529.433   108540276.587        1379.158          47.000  
G32  20471932.885   107580718.685        -156.811          48.000  
C20                                     -2766.980          37.000  
G 3  24518883.528   128847602.837        3351.488          38.000  
C 9  35926630.774   187079407.912         479.456          40.000  
C 6  36403712.721   189563693.558         -75.239          39.000  
C 7  36266689.685   188850170.609         768.116          39.000  
C 3  37517857.619   195365329.010         454.703          35.000  
G26  23323920.005   122568095.361        4031.478          39.000  
C 1  37903312.390   197372491.413         471.803          36.000  
C10  37480980.284   195173311.255        1134.956          36.000  
C 2  38397649.418   199946636.6192        395.275          33.000  
C 5  40037565.511   208486110.0353        391.039          28.000  
G 1  25510276.475   134057432.828       -1381.178          32.000  
G22  23399237.440   122963817.267        2369.662          40.000  
G 4  21877243.749   114965765.827        3758.289          43.000  
C 4  39077650.122   203487578.4743        447.700          32.000  
C19  23619973.664   122995398.567        -409.409          42.000  
> 2017 12 19  9 16 26.0002584  0 23                     
G29  23965785.283   125941017.297        2938.904          38.000  
G10  23086251.730   121319084.857       -3165.053          40.000  
G12  23662803.923   124348887.060       -2959.153          39.000  
G14  20524341.778   107856134.421        1292.895          44.000  
G25  21141309.993   111098306.423       -1196.108          44.000  
G31  20654266.973   108538897.377        1379.130          47.000  
G32  20471962.803   107580875.329        -156.826          48.000  
C20                                     -2766.706          39.000  
G 3  24518245.949   128844251.055        3351.552          39.000  
C 9  35926538.751   187078928.372         479.565          42.000  
C 6  36403726.925   189563768.753         -74.976          41.000  
C 7  36266541.908   188849402.473         768.128          41.000  
C 3  37517770.464   195364873.726         455.370          37.000  
G26  23323152.772   122564064.047        4030.964          39.000  
C 1  37903221.832   197372019.357         472.383          36.000  
C10  37480761.973   195172176.139        1134.878          38.000  
C 2  38397573.344   199946241.0432        395.450          36.000  
C 5  40037490.231   208485718.8612        391.468          32.000  
G 1  25510539.127   134058813.579       -1380.852          33.000  
G22  23398786.430   122961447.593        2369.479          40.000  
G 4  21876528.735   114962007.435        3758.255          43.000  
C 4  39077564.127   203487130.3732        448.451          34.000  
C19  23620052.155   122995807.969        -409.535          44.000  
> 2017 12 19  9 16 27.0002584  0 23                     
G29  23965226.117   125938078.311        2938.861          38.000  
G10  23086853.850   121322249.710       -3165.068          40.000  
G12  23663366.850   124351846.108       -2959.199          39.000  
G14  20524096.009   107854841.800        1292.479          44.000  
G25  21141537.849   111099502.825       -1196.728          44.000  
G31  20654004.679   108537518.442        1378.802          47.000  
G32  20471992.713   107581032.361        -157.289          48.000  
C20                                     -2766.807          39.000  
G 3  24517608.493   128840899.569        3350.985          39.000  
C 9  35926446.849   187078448.857         479.529          42.000  
C 6  36403741.767   189563844.008         -74.928          41.000  
C 7  36266394.401   188848634.342         768.081          41.000  
C 3  37517683.021   195364418.384         455.286          37.000  
G26  23322385.616   122560032.841        4031.070          39.000  
C 1  37903130.978   197371547.197         472.469          37.000  
C10  37480544.159   195171041.011        1135.081          38.000  
C 2  38397497.383   199945845.3922        395.574          36.000  
C 5  40037415.230   208485327.6273        391.544          32.000  
G 1  25510802.137   134060194.622       -1380.923          33.000  
G22  23398335.970   122959078.311        2369.184          40.000  
G 4  21875813.800   114958249.353        3757.890          43.000  
C 4  39077478.220   203486682.2122        448.510          35.000  
C19  23620131.135   122996217.842        -410.034          45.000  
> 2017 12 19  9 16 28.0002584  0 23                     
G29  23964667.413   125935139.518        2938.818          38.000  
G10  23087456.136   121325414.679       -3164.998          40.000  
G12  23663929.986   124354805.366       -2959.478          39.000  
G14  20523850.223   107853549.462        1292.208          44.000  
G25  21141765.461   111100699.751       -1197.449          44.000  
G31  20653742.533   108536139.782        1378.468          47.000  
G32  20472022.588   107581189.770        -157.740          48.000  
C20                                     -2767.231          39.000  
G 3  24516970.810   128837548.365        3350.794          39.000  
C 9  35926354.939   187077969.370         479.218          42.000  
C 6  36403755.919   189563919.331         -75.457          41.000  
C 7  36266246.746   188847866.225         767.876          41.000  
C 3  37517595.604   195363965.4683        455.300          37.000  
G26  23321618.627   122556001.811        4030.940          39.000  
C 1  37903040.560   197371078.0323        471.896          37.000  
C10  37480326.084   195169905.934        1134.741          38.000  
C 2  38397421.370   199945449.6642        395.621          36.000  
C 5  40037340.107   208484936.3303        391.340          32.000  
G 1  25511065.042   134061575.927       -1381.037          34.000  
G22  23397885.205   122956709.464        2368.514          40.000  
G 4  21875098.559   114954491.575        3757.643          43.000  
C 4  39077392.208   203486235.0233        447.704          35.000  
C19  23620210.001   122996628.199        -410.773          45.000  
> 2017 12 19  9 16 29.0002584  0 23                     
G29  23964108.230   125932201.126        2938.330          38.000  
G10  23088058.596   121328579.992       -3165.610          40.000  
G12  23664493.192   124357765.063       -2959.882          39.000  
G14  20523604.123   107852257.613        1291.915          44.000  
G25  21141993.422   111101897.409       -1197.817          44.000  
G31  20653480.151   108534761.603        1378.132          47.000  
G32  20472052.576   107581347.782        -158.143          48.000  
C20                                     -2767.100          39.000  
G 3  24516333.283   128834197.621        3351.075          38.000  
C 9  35926262.967   187077490.123         479.065          42.000  
C 6  36403770.333   189563994.887         -75.676          41.000  
C 7  36266099.292   188847098.305         768.077          41.000  
C 3  37517508.222   195363510.1652        455.471          37.000  
G26  23320851.577   122551971.121        4030.515          39.000  
C 1  37902949.853   197370605.9542        472.393          37.000  
C10  37480108.034   195168771.056        1134.981          38.000  
C 2  38397345.391   199945054.0392        395.831          36.000  
C 5  40037265.184   208484546.1242        391.699          32.000  
G 1  25511328.400   134062957.734       -1382.284          34.000  
G22  23397434.824   122954341.226        2368.027          40.000  
G 4  21874383.850   114950734.331        3757.238          43.000  
C 4  39077306.187   203485787.8793        448.363          35.000  
C19  23620288.867   122997039.212        -411.348          45.000  
> 2017 12 19  9 16 30.0002584  0 23                     
G29  23963548.968   125929263.081        2937.659          38.000  
G10  23088661.030   121331745.548       -3165.967          40.000  
G12  23665056.615   124360725.125       -2960.310          39.000  
G14  20523358.476   107850966.210        1291.130          44.000  
G25  21142221.618   111103095.785       -1198.908          44.000  
G31  20653217.726   108533383.868        1377.495          47.000  
G32  20472082.599   107581506.349        -159.036          48.000  
C20                                     -2767.714          39.000  
G 3  24515695.618   128830847.363        3349.626          39.000  
C 9  35926170.891   187077011.057         478.790          42.000  
C 6  36403785.087   189564070.648         -75.658          42.000  
C 7  36265951.820   188846330.629         767.135          41.000  
C 3  37517420.666   195363054.9642        455.030          37.000  
G26  23320084.701   122547940.737        4030.052          39.000  
C 1  37902859.243   197370133.9802        471.726          38.000  
C10  37479890.055   195167636.381        1134.513          38.000  
C 2  38397269.422   199944658.026         395.387          36.000  
C 5  40037190.061   208484155.0483        391.142          32.000  
G 1  25511591.428   134064339.974       -1383.175          34.000  
G22  23396984.643   122951973.579        2367.125          40.000  
G 4  21873669.098   114946977.567        3756.438          43.000  
C 4  39077220.000   203485339.8712        447.679          37.000  
C19  23620367.995   122997450.853        -412.118          44.000  
> 2017 12 19  9 16 31.0002584  0 23                     
G29  23962989.750   125926325.369        2937.305          38.000  
G10  23089263.498   121334911.361       -3165.942          40.000  
G12  23665620.004   124363685.545       -2960.419          39.000  
G14  20523112.838   107849675.235        1290.831          44.000  
G25  21142449.954   111104294.835       -1199.239          44.000  
G31  20652955.772   108532006.561        1377.222          47.000  
G32  20472112.980   107581665.425        -159.192          48.000  
C20                                     -2767.804          40.000  
G 3  24515058.414   128827497.536        3349.661          39.000  
C 9  35926078.789   187076532.202         478.760          42.000  
C 6  36403799.693   189564146.616         -75.735          42.000  
C 7  36265804.453   188845563.085         767.392          42.000  
C 3  37517333.371   195362599.8252        455.380          38.000  
G26  23319317.711   122543910.655        4029.997          39.000  
C 1  37902768.327   197369662.0702        472.161          38.000  
C10  37479672.355   195166501.887        1134.666          39.000  
C 2  38397193.505   199944262.594         395.908          36.000  
C 5  40037114.886   208483763.0543        390.532          32.000  
G 1  25511854.612   134065722.619       -1382.788          35.000  
G22  23396534.104   122949606.459        2367.279          40.000  
G 4  21872954.233   114943221.259        3756.175          43.000  
C 4  39077133.997   203484891.9402        448.126          35.000  
C19  23620447.071   122997863.105        -412.440          45.000  
> 2017 12 19  9 16 32.0002584  0 23                     
G29  23962430.784   125923387.872        2937.787          38.000  
G10  23089865.810   121338077.384       -3165.807          40.000  
G12  23666183.516   124366646.249       -2960.527          39.000  
G14  20522867.374   107848384.620        1290.735          44.000  
G25  21142678.212   111105494.498       -1199.715          44.000  
G31  20652693.557   108530629.598        1376.990          47.000  
G32  20472143.273   107581824.982        -159.515          48.000  
C20                                     -2767.903          39.000  
G 3  24514421.185   128824148.060        3349.778          39.000  
C 9  35925986.948   187076053.428         479.108          42.000  
C 6  36403814.403   189564222.727         -75.789          41.000  
C 7  36265657.103   188844795.659         767.528          41.000  
C 3  37517245.885   195362144.7192        455.307          38.000  
G26  23318550.861   122539880.768        4030.202          39.000  
C 1  37902677.822   197369190.1682        472.346          37.000  
C10  37479454.498   195165367.503        1134.766          38.000  
C 2  38397117.553   199943867.156         395.822          36.000  
C 5  40037039.824   208483371.9772        391.824          32.000  
G 1  25512117.883   134067105.629       -1382.938          34.000  
G22  23396083.714   122947239.866        2366.734          40.000  
G 4  21872239.707   114939465.327        3756.270          43.000  
C 4  39077048.055   203484443.9942        448.462          35.000  
C19  23620526.234   122998275.912        -412.860          44.000  
> 2017 12 19  9 16 33.0002584  0 23                     
G29  23961871.723   125920450.639        2937.195          38.000  
G10  23090468.244   121341243.543       -3166.342          40.000  
G12  23666747.044   124369607.211       -2961.006          39.000  
G14  20522621.963   107847094.336        1289.895          44.000  
G25  21142906.688   111106694.747       -1200.637          44.000  
G31  20652431.751   108529252.968        1376.346          47.000  
G32  20472173.872   107581984.972        -160.409          48.000  
C20                                     -2768.375          39.000  
G 3  24513783.746   128820798.911        3349.086          39.000  
C 9  35925894.864   187075574.735         478.497          42.000  
C 6  36403828.678   189564298.931         -76.333          41.000  
C 7  36265509.701   188844028.264         767.269          41.000  
C 3  37517158.389   195361689.5662        454.646          37.000  
G26  23317784.038   122535851.110        4029.132          39.000  
C 1  37902587.264   197368718.2472        471.783          37.000  
C10  37479236.797   195164233.173        1134.258          38.000  
C 2  38397041.740   199943471.691         395.344          36.000  
C 5  40036964.683   208482980.9633        390.638          31.000  
G 1  25512381.242   134068488.933       -1383.134          34.000  
G22  23395633.516   122944873.725        2365.928          40.000  
G 4  21871525.025   114935709.791        3755.082          43.000  
C 4  39076962.235   203483996.0572        447.258          35.000  
