% program   : RTKLIB ver.2.4.3
% inp file  : 20171219r.obs
% inp file  : 20171219b.obs
% inp file  : 20171219r.nav
% obs start : 2017/12/19 09:15:58.0 GPST (week1980 206158.0s)
% obs end   : 2017/12/19 09:26:38.0 GPST (week1980 206798.0s)
% pos mode  : kinematic
% freqs     : L1
% solution  : forward
% elev mask : 15.0 deg
% dynamics  : off
% tidecorr  : off
% ionos opt : broadcast
% tropo opt : saastamoinen
% ephemeris : broadcast
% navi sys  : gps beidou
% amb res   : continuous
% val thres : 3.0
% antenna1  :                       ( 0.0000  0.0000  0.0000)
% antenna2  :                       ( 0.0000  0.0000  0.0000)
% ref pos   : 40.070564244 116.275108139   93.6405
%
% (lat/lon/height=WGS84/ellipsoidal,Q=1:fix,2:float,3:sbas,4:dgps,5:single,6:ppp,ns=# of satellites)
%  GPST                  latitude(deg) longitude(deg)  height(m)   Q  ns   sdn(m)   sde(m)   sdu(m)  sdne(m)  sdeu(m)  sdun(m) age(s)  ratio
2017/12/19 09:15:58.000   40.070531781  116.275023557    92.6832   2   8   0.7203   0.6989   1.3095  -0.2116  -0.3689  -0.5067   0.00    1.6
2017/12/19 09:15:59.000   40.070531526  116.275024079    92.8753   2   8   0.5142   0.4971   0.9328  -0.1490  -0.2639  -0.3628   0.00    1.8
2017/12/19 09:16:00.000   40.070530818  116.275024046    93.0336   2   8   0.4212   0.4067   0.7635  -0.1215  -0.2163  -0.2974   0.00    1.5
2017/12/19 09:16:01.000   40.070531417  116.275023402    92.9789   2   8   0.3653   0.3526   0.6620  -0.1051  -0.1877  -0.2580   0.00    1.4
2017/12/19 09:16:02.000   40.070531699  116.275023229    92.9047   2   8   0.3270   0.3156   0.5925  -0.0939  -0.1680  -0.2310   0.00    1.3
2017/12/19 09:16:03.000   40.070531820  116.275023517    92.7986   2   8   0.2986   0.2882   0.5411  -0.0857  -0.1535  -0.2110   0.00    1.2
2017/12/19 09:16:04.000   40.070532056  116.275024008    92.7314   2   8   0.2765   0.2669   0.5011  -0.0793  -0.1421  -0.1954   0.00    1.1
2017/12/19 09:16:05.000   40.070532108  116.275023957    92.7180   2   8   0.2587   0.2497   0.4687  -0.0742  -0.1330  -0.1828   0.00    1.0
2017/12/19 09:16:06.000   40.070532059  116.275023822    92.7525   2   8   0.2439   0.2355   0.4419  -0.0699  -0.1254  -0.1723   0.00    1.1
2017/12/19 09:16:07.000   40.070531949  116.275023817    92.8097   2   8   0.2313   0.2234   0.4192  -0.0663  -0.1189  -0.1634   0.00    1.0
2017/12/19 09:16:08.000   40.070531800  116.275024127    92.8547   2   8   0.2205   0.2131   0.3997  -0.0632  -0.1134  -0.1557   0.00    1.0
2017/12/19 09:16:09.000   40.070531741  116.275024243    92.8942   2   8   0.2110   0.2040   0.3826  -0.0604  -0.1085  -0.1490   0.00    1.0
2017/12/19 09:16:10.000   40.070531657  116.275024585    92.8961   2   8   0.2026   0.1960   0.3675  -0.0580  -0.1042  -0.1431   0.00    1.0
2017/12/19 09:16:11.000   40.070531625  116.275024837    92.9053   2   8   0.1952   0.1889   0.3540  -0.0559  -0.1004  -0.1378   0.00    1.1
2017/12/19 09:16:12.000   40.070531902  116.275024970    92.9272   2   8   0.1884   0.1825   0.3419  -0.0540  -0.0970  -0.1330   0.00    1.1
2017/12/19 09:16:13.000   40.070532131  116.275024899    92.9616   2   8   0.1823   0.1767   0.3310  -0.0522  -0.0938  -0.1287   0.00    1.1
2017/12/19 09:16:14.000   40.070532281  116.275024848    92.9962   2   8   0.1768   0.1715   0.3210  -0.0506  -0.0910  -0.1247   0.00    1.1
2017/12/19 09:16:15.000   40.070532337  116.275024731    93.0004   2   8   0.1717   0.1666   0.3118  -0.0492  -0.0884  -0.1211   0.00    1.0
2017/12/19 09:16:16.000   40.070532134  116.275024743    93.0196   2   8   0.1669   0.1622   0.3034  -0.0478  -0.0860  -0.1178   0.00    1.0
2017/12/19 09:16:17.000   40.070532040  116.275024608    93.0215   2   8   0.1626   0.1581   0.2955  -0.0466  -0.0837  -0.1146   0.00    1.0
2017/12/19 09:16:18.000   40.070532028  116.275024649    92.9954   2   8   0.1585   0.1543   0.2883  -0.0454  -0.0817  -0.1118   0.00    1.0
2017/12/19 09:16:19.000   40.070531989  116.275024517    93.0099   2   8   0.1547   0.1507   0.2815  -0.0443  -0.0797  -0.1091   0.00    1.0
2017/12/19 09:16:20.000   40.070532182  116.275024382    93.0033   2   8   0.1512   0.1474   0.2752  -0.0433  -0.0779  -0.1065   0.00    1.1
2017/12/19 09:16:21.000   40.070532264  116.275024287    93.0098   2   8   0.1478   0.1443   0.2692  -0.0424  -0.0762  -0.1041   0.00    1.1
2017/12/19 09:16:22.000   40.070532380  116.275024176    93.0096   2   8   0.1447   0.1414   0.2636  -0.0415  -0.0746  -0.1019   0.00    1.1
2017/12/19 09:16:23.000   40.070532522  116.275024085    93.0198   2   8   0.1417   0.1386   0.2583  -0.0406  -0.0731  -0.0998   0.00    1.2
2017/12/19 09:16:24.000   40.070532627  116.275023982    93.0159   2   8   0.1389   0.1360   0.2533  -0.0398  -0.0717  -0.0977   0.00    1.2
2017/12/19 09:16:25.000   40.070532749  116.275023829    93.0187   2   8   0.1362   0.1336   0.2486  -0.0390  -0.0703  -0.0958   0.00    1.2
2017/12/19 09:16:26.000   40.070532791  116.275023801    93.0299   2   8   0.1337   0.1313   0.2441  -0.0383  -0.0690  -0.0940   0.00    1.2
2017/12/19 09:16:27.000   40.070532760  116.275023711    93.0212   2   8   0.1313   0.1291   0.2398  -0.0376  -0.0678  -0.0923   0.00    1.3
2017/12/19 09:16:28.000   40.070532712  116.275023757    93.0122   2   8   0.1289   0.1270   0.2357  -0.0370  -0.0666  -0.0906   0.00    1.3
2017/12/19 09:16:29.000   40.070532707  116.275023769    93.0286   2   8   0.1267   0.1250   0.2318  -0.0363  -0.0655  -0.0890   0.00    1.3
2017/12/19 09:16:30.000   40.070532629  116.275023775    93.0555   2   8   0.1246   0.1230   0.2281  -0.0357  -0.0645  -0.0875   0.00    1.3
2017/12/19 09:16:31.000   40.070532549  116.275023765    93.0734   2   8   0.1226   0.1212   0.2245  -0.0352  -0.0634  -0.0860   0.00    1.3
2017/12/19 09:16:32.000   40.070532494  116.275023719    93.0876   2   8   0.1206   0.1195   0.2211  -0.0346  -0.0624  -0.0846   0.00    1.4
2017/12/19 09:16:33.000   40.070532424  116.275023678    93.0912   2   8   0.1188   0.1178   0.2178  -0.0341  -0.0615  -0.0833   0.00    1.4
2017/12/19 09:16:34.000   40.070532339  116.275023535    93.0925   2   8   0.1170   0.1162   0.2147  -0.0336  -0.0606  -0.0820   0.00    1.4
2017/12/19 09:16:35.000   40.070532279  116.275023510    93.0945   2   8   0.1152   0.1146   0.2116  -0.0331  -0.0597  -0.0807   0.00    1.4
2017/12/19 09:16:36.000   40.070532286  116.275023458    93.1055   2   8   0.1135   0.1131   0.2087  -0.0326  -0.0589  -0.0795   0.00    1.5
2017/12/19 09:16:37.000   40.070532200  116.275023490    93.1103   2   8   0.1119   0.1117   0.2059  -0.0321  -0.0580  -0.0783   0.00    1.5
2017/12/19 09:16:38.000   40.070532198  116.275023441    93.1253   2   8   0.1103   0.1103   0.2031  -0.0317  -0.0573  -0.0772   0.00    1.5
2017/12/19 09:16:39.000   40.070532166  116.275023405    93.1290   2   8   0.1088   0.1090   0.2005  -0.0313  -0.0565  -0.0761   0.00    1.5
2017/12/19 09:16:40.000   40.070532249  116.275023250    93.1325   2   8   0.1073   0.1077   0.1979  -0.0308  -0.0557  -0.0750   0.00    1.6
2017/12/19 09:16:41.000   40.070532206  116.275023237    93.1385   2   8   0.1059   0.1065   0.1955  -0.0304  -0.0550  -0.0740   0.00    1.6
2017/12/19 09:16:42.000   40.070532220  116.275023163    93.1455   2   8   0.1045   0.1053   0.1931  -0.0300  -0.0543  -0.0730   0.00    1.6
2017/12/19 09:16:43.000   40.070532254  116.275023120    93.1471   2   8   0.1032   0.1041   0.1907  -0.0297  -0.0537  -0.0720   0.00    1.6
2017/12/19 09:16:44.000   40.070532262  116.275023099    93.1421   2   8   0.1019   0.1030   0.1885  -0.0293  -0.0530  -0.0711   0.00    1.6
2017/12/19 09:16:45.000   40.070532266  116.275023096    93.1329   2   8   0.1006   0.1019   0.1863  -0.0289  -0.0524  -0.0702   0.00    1.7
2017/12/19 09:16:46.000   40.070532251  116.275023067    93.1284   2   8   0.0994   0.1008   0.1842  -0.0286  -0.0517  -0.0693   0.00    1.7
2017/12/19 09:16:47.000   40.070532248  116.275023032    93.1224   2   8   0.0982   0.0998   0.1821  -0.0282  -0.0511  -0.0684   0.00    1.6
2017/12/19 09:16:48.000   40.070532260  116.275023035    93.1125   2   8   0.0970   0.0988   0.1801  -0.0279  -0.0505  -0.0675   0.00    1.7
2017/12/19 09:16:49.000   40.070532253  116.275023013    93.1094   2   9   0.0958   0.0976   0.1778  -0.0274  -0.0493  -0.0668   0.00    1.7
2017/12/19 09:16:50.000   40.070532276  116.275023023    93.0981   2   9   0.0947   0.0965   0.1756  -0.0270  -0.0481  -0.0661   0.00    1.7
2017/12/19 09:16:51.000   40.070532302  116.275023019    93.0839   2   9   0.0936   0.0954   0.1735  -0.0266  -0.0470  -0.0653   0.00    1.8
2017/12/19 09:16:52.000   40.070532286  116.275022993    93.0902   2   9   0.0925   0.0944   0.1714  -0.0261  -0.0459  -0.0646   0.00    1.8
2017/12/19 09:16:53.000   40.070532307  116.275022970    93.0781   2   9   0.0915   0.0934   0.1694  -0.0258  -0.0449  -0.0639   0.00    1.9
2017/12/19 09:16:54.000   40.070532291  116.275022937    93.0735   2   9   0.0904   0.0924   0.1675  -0.0254  -0.0439  -0.0633   0.00    1.9
2017/12/19 09:16:55.000   40.070532263  116.275022955    93.0724   2   9   0.0894   0.0915   0.1656  -0.0250  -0.0430  -0.0626   0.00    1.9
2017/12/19 09:16:56.000   40.070532242  116.275022959    93.0678   2   9   0.0885   0.0905   0.1638  -0.0246  -0.0421  -0.0619   0.00    1.9
2017/12/19 09:16:57.000   40.070532216  116.275022915    93.0683   2   9   0.0875   0.0896   0.1620  -0.0243  -0.0412  -0.0613   0.00    2.0
2017/12/19 09:16:58.000   40.070532210  116.275022883    93.0658   2   9   0.0866   0.0888   0.1603  -0.0240  -0.0404  -0.0606   0.00    2.0
2017/12/19 09:16:59.000   40.070532197  116.275022914    93.0665   2   9   0.0857   0.0879   0.1586  -0.0236  -0.0396  -0.0600   0.00    2.0
2017/12/19 09:17:00.000   40.070532169  116.275022881    93.0750   2   9   0.0848   0.0871   0.1570  -0.0233  -0.0388  -0.0594   0.00    2.0
2017/12/19 09:17:01.000   40.070532166  116.275022853    93.0736   2   9   0.0839   0.0863   0.1554  -0.0230  -0.0381  -0.0588   0.00    2.1
2017/12/19 09:17:02.000   40.070532146  116.275022852    93.0785   2   9   0.0830   0.0855   0.1538  -0.0227  -0.0374  -0.0582   0.00    2.1
2017/12/19 09:17:03.000   40.070532121  116.275022826    93.0815   2   9   0.0822   0.0848   0.1523  -0.0224  -0.0366  -0.0576   0.00    2.1
2017/12/19 09:17:04.000   40.070532083  116.275022877    93.0796   2   9   0.0813   0.0841   0.1508  -0.0221  -0.0360  -0.0570   0.00    2.1
2017/12/19 09:17:05.000   40.070532098  116.275022848    93.0760   2   9   0.0805   0.0833   0.1493  -0.0219  -0.0353  -0.0564   0.00    2.1
2017/12/19 09:17:06.000   40.070532034  116.275022828    93.0929   2   9   0.0797   0.0827   0.1479  -0.0216  -0.0347  -0.0558   0.00    2.1
2017/12/19 09:17:07.000   40.070532004  116.275022873    93.1047   2   9   0.0789   0.0820   0.1464  -0.0213  -0.0340  -0.0553   0.00    2.2
2017/12/19 09:17:08.000   40.070531957  116.275022836    93.1153   2   9   0.0781   0.0813   0.1451  -0.0211  -0.0335  -0.0548   0.00    2.2
2017/12/19 09:17:09.000   40.070531972  116.275022791    93.1209   2   9   0.0774   0.0807   0.1437  -0.0208  -0.0329  -0.0542   0.00    2.2
2017/12/19 09:17:10.000   40.070531946  116.275022745    93.1291   2   9   0.0767   0.0800   0.1424  -0.0206  -0.0323  -0.0537   0.00    2.2
2017/12/19 09:17:11.000   40.070531898  116.275022782    93.1305   2   9   0.0759   0.0794   0.1411  -0.0203  -0.0317  -0.0532   0.00    2.2
2017/12/19 09:17:12.000   40.070531924  116.275022768    93.1312   2   9   0.0752   0.0788   0.1398  -0.0201  -0.0312  -0.0526   0.00    2.3
2017/12/19 09:17:13.000   40.070531953  116.275022766    93.1398   2   9   0.0745   0.0782   0.1386  -0.0199  -0.0307  -0.0521   0.00    2.3
2017/12/19 09:17:14.000   40.070531960  116.275022742    93.1447   2   9   0.0738   0.0776   0.1373  -0.0197  -0.0302  -0.0516   0.00    2.3
2017/12/19 09:17:15.000   40.070531927  116.275022702    93.1552   2   9   0.0731   0.0771   0.1361  -0.0194  -0.0297  -0.0511   0.00    2.3
2017/12/19 09:17:16.000   40.070531937  116.275022632    93.1608   2   9   0.0724   0.0765   0.1350  -0.0192  -0.0292  -0.0506   0.00    2.3
2017/12/19 09:17:17.000   40.070531926  116.275022610    93.1681   2   9   0.0718   0.0760   0.1338  -0.0190  -0.0287  -0.0502   0.00    2.4
2017/12/19 09:17:18.000   40.070531915  116.275022561    93.1728   2   9   0.0711   0.0754   0.1326  -0.0188  -0.0283  -0.0497   0.00    2.4
2017/12/19 09:17:19.000   40.070531924  116.275022517    93.1810   2   9   0.0705   0.0749   0.1315  -0.0186  -0.0278  -0.0492   0.00    2.4
2017/12/19 09:17:20.000   40.070531917  116.275022447    93.1912   2   9   0.0698   0.0744   0.1304  -0.0184  -0.0274  -0.0487   0.00    2.4
2017/12/19 09:17:21.000   40.070531915  116.275022436    93.1971   2   9   0.0692   0.0739   0.1293  -0.0182  -0.0270  -0.0483   0.00    2.5
2017/12/19 09:17:22.000   40.070531919  116.275022404    93.2033   2   9   0.0686   0.0734   0.1283  -0.0180  -0.0265  -0.0478   0.00    2.5
2017/12/19 09:17:23.000   40.070531920  116.275022389    93.2160   2   9   0.0680   0.0729   0.1272  -0.0179  -0.0261  -0.0474   0.00    2.5
2017/12/19 09:17:24.000   40.070531955  116.275022332    93.2219   2   9   0.0674   0.0725   0.1262  -0.0177  -0.0257  -0.0470   0.00    2.5
2017/12/19 09:17:25.000   40.070531979  116.275022330    93.2291   2   9   0.0668   0.0720   0.1252  -0.0175  -0.0253  -0.0465   0.00    2.6
2017/12/19 09:17:26.000   40.070531967  116.275022346    93.2444   2   9   0.0662   0.0716   0.1241  -0.0173  -0.0250  -0.0461   0.00    2.6
2017/12/19 09:17:27.000   40.070531975  116.275022357    93.2495   2   9   0.0657   0.0711   0.1232  -0.0172  -0.0246  -0.0456   0.00    2.6
2017/12/19 09:17:28.000   40.070532020  116.275022347    93.2525   2   9   0.0651   0.0707   0.1222  -0.0170  -0.0242  -0.0452   0.00    2.6
2017/12/19 09:17:29.000   40.070532026  116.275022343    93.2525   2   9   0.0645   0.0702   0.1212  -0.0168  -0.0239  -0.0448   0.00    2.6
2017/12/19 09:17:30.000   40.070532021  116.275022324    93.2546   2   9   0.0640   0.0698   0.1203  -0.0167  -0.0235  -0.0444   0.00    2.6
2017/12/19 09:17:31.000   40.070532052  116.275022352    93.2587   2   9   0.0635   0.0694   0.1193  -0.0165  -0.0232  -0.0440   0.00    2.7
2017/12/19 09:17:32.000   40.070532070  116.275022358    93.2619   2   9   0.0629   0.0690   0.1184  -0.0163  -0.0229  -0.0436   0.00    2.7
2017/12/19 09:17:33.000   40.070532102  116.275022359    93.2651   2   9   0.0624   0.0686   0.1175  -0.0162  -0.0225  -0.0432   0.00    2.7
2017/12/19 09:17:34.000   40.070532108  116.275022388    93.2737   2   9   0.0619   0.0682   0.1166  -0.0160  -0.0222  -0.0428   0.00    2.7
2017/12/19 09:17:35.000   40.070532128  116.275022401    93.2795   2   9   0.0614   0.0678   0.1157  -0.0159  -0.0219  -0.0424   0.00    2.7
2017/12/19 09:17:36.000   40.070532195  116.275022481    93.2901   2   9   0.0609   0.0674   0.1148  -0.0157  -0.0216  -0.0421   0.00    2.8
2017/12/19 09:17:37.000   40.070532215  116.275022448    93.2940   2   9   0.0604   0.0670   0.1140  -0.0156  -0.0213  -0.0417   0.00    2.8
2017/12/19 09:17:38.000   40.070532243  116.275022447    93.2963   2   9   0.0599   0.0667   0.1131  -0.0155  -0.0210  -0.0413   0.00    2.8
2017/12/19 09:17:39.000   40.070532255  116.275022437    93.3025   2   9   0.0594   0.0663   0.1123  -0.0153  -0.0207  -0.0409   0.00    2.8
2017/12/19 09:17:40.000   40.070532263  116.275022479    93.3022   2   9   0.0589   0.0659   0.1115  -0.0152  -0.0204  -0.0406   0.00    2.8
2017/12/19 09:17:41.000   40.070532265  116.275022504    93.3137   2   9   0.0584   0.0656   0.1106  -0.0150  -0.0201  -0.0402   0.00    2.8
2017/12/19 09:17:42.000   40.070532230  116.275022570    93.3182   2   9   0.0580   0.0652   0.1098  -0.0149  -0.0199  -0.0399   0.00    2.9
2017/12/19 09:17:43.000   40.070532273  116.275022628    93.3194   2   9   0.0575   0.0649   0.1090  -0.0148  -0.0196  -0.0396   0.00    2.9
2017/12/19 09:17:44.000   40.070532313  116.275022679    93.3211   2   9   0.0571   0.0646   0.1082  -0.0146  -0.0194  -0.0392   0.00    2.9
2017/12/19 09:17:45.000   40.070532350  116.275022725    93.3280   2   9   0.0566   0.0642   0.1075  -0.0145  -0.0191  -0.0389   0.00    2.9
2017/12/19 09:17:46.000   40.070532366  116.275022730    93.3341   2   9   0.0562   0.0639   0.1067  -0.0144  -0.0189  -0.0385   0.00    2.9
2017/12/19 09:17:47.000   40.070532413  116.275022808    93.3348   2   9   0.0558   0.0636   0.1059  -0.0143  -0.0186  -0.0382   0.00    2.9
2017/12/19 09:17:48.000   40.070532415  116.275022891    93.3396   2   9   0.0553   0.0633   0.1052  -0.0141  -0.0184  -0.0379   0.00    3.0
2017/12/19 09:17:49.000   40.070532420  116.275022957    93.3508   2   9   0.0549   0.0630   0.1044  -0.0140  -0.0181  -0.0375   0.00    3.0
2017/12/19 09:17:50.000   40.070532466  116.275023023    93.3501   2   9   0.0544   0.0626   0.1037  -0.0139  -0.0179  -0.0372   0.00    3.0
2017/12/19 09:17:51.000   40.070532431  116.275023055    93.3568   2   9   0.0540   0.0623   0.1030  -0.0138  -0.0177  -0.0369   0.00    3.0
2017/12/19 09:17:52.000   40.070532533  116.275024442    93.7118   1   9   0.0074   0.0065   0.0124  -0.0015  -0.0009  -0.0055   0.00    3.0
2017/12/19 09:17:53.000   40.070532523  116.275024452    93.7162   1   9   0.0072   0.0064   0.0124  -0.0017  -0.0011  -0.0055   0.00    3.0
2017/12/19 09:17:54.000   40.070532519  116.275024442    93.7158   1   9   0.0073   0.0065   0.0124  -0.0015  -0.0012  -0.0055   0.00    3.0
2017/12/19 09:17:55.000   40.070532540  116.275024436    93.7141   1   9   0.0073   0.0065   0.0124  -0.0017  -0.0003  -0.0054   0.00    3.0
2017/12/19 09:17:56.000   40.070532543  116.275024444    93.7156   1   9   0.0075   0.0065   0.0124  -0.0015  -0.0011  -0.0054   0.00    3.1
2017/12/19 09:17:57.000   40.070532524  116.275024438    93.7118   1   9   0.0073   0.0065   0.0124  -0.0015  -0.0010  -0.0054   0.00    3.1
2017/12/19 09:17:58.000   40.070532528  116.275024443    93.7153   1   9   0.0072   0.0065   0.0124  -0.0017  -0.0006  -0.0056   0.00    3.1
2017/12/19 09:17:59.000   40.070532516  116.275024445    93.7133   1   9   0.0073   0.0065   0.0124  -0.0017  -0.0012  -0.0055   0.00    3.1
2017/12/19 09:18:00.000   40.070532514  116.275024431    93.7130   1   9   0.0072   0.0065   0.0124  -0.0017  -0.0014  -0.0055   0.00    3.1
2017/12/19 09:18:01.000   40.070532529  116.275024457    93.7151   1   9   0.0073   0.0065   0.0124  -0.0014  -0.0014  -0.0055   0.00    3.2
2017/12/19 09:18:02.000   40.070532541  116.275024434    93.7118   1   9   0.0074   0.0064   0.0124  -0.0015  -0.0009  -0.0055   0.00    3.2
2017/12/19 09:18:03.000   40.070532523  116.275024434    93.7156   1   9   0.0073   0.0065   0.0124  -0.0017  -0.0012  -0.0055   0.00    3.2
2017/12/19 09:18:04.000   40.070532524  116.275024466    93.7162   1   9   0.0074   0.0065   0.0124  -0.0016  -0.0007  -0.0054   0.00    3.2
2017/12/19 09:18:05.000   40.070532536  116.275024447    93.7157   1   9   0.0073   0.0065   0.0124  -0.0017  -0.0013  -0.0055   0.00    3.2
2017/12/19 09:18:06.000   40.070532508  116.275024425    93.7182   1   9   0.0074   0.0066   0.0124  -0.0016  -0.0010  -0.0055   0.00    3.2
2017/12/19 09:18:07.000   40.070532499  116.275024461    93.7151   1   9   0.0073   0.0065   0.0124  -0.0014  -0.0013  -0.0054   0.00    3.3
2017/12/19 09:18:08.000   40.070532507  116.275024446    93.7162   1   9   0.0074   0.0065   0.0124  -0.0016  -0.0010  -0.0054   0.00    3.3
2017/12/19 09:18:09.000   40.070532547  116.275024422    93.7170   1   9   0.0075   0.0065   0.0124  -0.0016  -0.0005  -0.0054   0.00    3.3
2017/12/19 09:18:10.000   40.070532508  116.275024437    93.7192   1   9   0.0072   0.0064   0.0124  -0.0017  -0.0013  -0.0055   0.00    3.3
2017/12/19 09:18:11.000   40.070532518  116.275024423    93.7190   1   9   0.0073   0.0064   0.0124  -0.0019  -0.0009  -0.0055   0.00    3.3
2017/12/19 09:18:12.000   40.070532539  116.275024416    93.7166   1   9   0.0073   0.0065   0.0124  -0.0017  -0.0012  -0.0055   0.00    3.3
2017/12/19 09:18:13.000   40.070532536  116.275024439    93.7164   1   9   0.0074   0.0066   0.0124  -0.0017  -0.0012  -0.0055   0.00    3.4
2017/12/19 09:18:14.000   40.070532523  116.275024426    93.7172   1   9   0.0073   0.0065   0.0124  -0.0016  -0.0011  -0.0055   0.00    3.4
2017/12/19 09:18:15.000   40.070532528  116.275024428    93.7134   1   9   0.0074   0.0065   0.0124  -0.0016  -0.0016  -0.0055   0.00    3.4
2017/12/19 09:18:16.000   40.070532539  116.275024433    93.7146   1   9   0.0074   0.0065   0.0124  -0.0017  -0.0010  -0.0054   0.00    3.4
2017/12/19 09:18:17.000   40.070532542  116.275024425    93.7126   1   9   0.0075   0.0065   0.0124  -0.0016  -0.0010  -0.0054   0.00    3.4
2017/12/19 09:18:18.000   40.070532528  116.275024446    93.7179   1   9   0.0074   0.0065   0.0124  -0.0017  -0.0011  -0.0054   0.00    3.4
2017/12/19 09:18:19.000   40.070532533  116.275024446    93.7147   1   9   0.0074   0.0065   0.0124  -0.0016  -0.0008  -0.0054   0.00    3.4
2017/12/19 09:18:20.000   40.070532510  116.275024444    93.7120   1   9   0.0074   0.0064   0.0124  -0.0015  -0.0007  -0.0054   0.00    3.4
2017/12/19 09:18:21.000   40.070532539  116.275024448    93.7125   1   9   0.0074   0.0065   0.0124  -0.0016  -0.0007  -0.0054   0.00    3.4
2017/12/19 09:18:22.000   40.070532529  116.275024441    93.7140   1   9   0.0074   0.0065   0.0124  -0.0015  -0.0011  -0.0055   0.00    3.4
2017/12/19 09:18:23.000   40.070532546  116.275024464    93.7131   1   9   0.0075   0.0065   0.0124  -0.0015  -0.0008  -0.0054   0.00    3.4
2017/12/19 09:18:24.000   40.070532512  116.275024455    93.7126   1   9   0.0074   0.0065   0.0124  -0.0014  -0.0013  -0.0055   0.00    3.4
2017/12/19 09:18:25.000   40.070532529  116.275024453    93.7104   1   9   0.0073   0.0065   0.0124  -0.0015  -0.0012  -0.0055   0.00    3.4
2017/12/19 09:18:26.000   40.070532525  116.275024447    93.7130   1   9   0.0074   0.0065   0.0124  -0.0014  -0.0011  -0.0054   0.00    3.5
2017/12/19 09:18:27.000   40.070532520  116.275024458    93.7144   1   9   0.0073   0.0065   0.0124  -0.0013  -0.0010  -0.0054   0.00    3.5
2017/12/19 09:18:28.000   40.070532530  116.275024442    93.7137   1   9   0.0074   0.0065   0.0124  -0.0016  -0.0010  -0.0055   0.00    3.5
2017/12/19 09:18:29.000   40.070532531  116.275024435    93.7154   1   9   0.0074   0.0064   0.0124  -0.0017  -0.0011  -0.0053   0.00    3.5
2017/12/19 09:18:30.000   40.070532530  116.275024448    93.7127   1   9   0.0074   0.0065   0.0124  -0.0015  -0.0012  -0.0054   0.00    3.5
2017/12/19 09:18:31.000   40.070532496  116.275024430    93.7101   1   9   0.0073   0.0065   0.0124  -0.0015  -0.0013  -0.0055   0.00    3.5
2017/12/19 09:18:32.000   40.070532539  116.275024418    93.7083   1   9   0.0074   0.0064   0.0124  -0.0016  -0.0012  -0.0054   0.00    3.5
2017/12/19 09:18:33.000   40.070532539  116.275024440    93.7128   1   9   0.0074   0.0064   0.0124  -0.0015  -0.0010  -0.0054   0.00    3.5
2017/12/19 09:18:34.000   40.070532527  116.275024420    93.7110   1   9   0.0074   0.0065   0.0124  -0.0016  -0.0010  -0.0055   0.00    3.6
2017/12/19 09:18:35.000   40.070532559  116.275024442    93.7076   1   9   0.0074   0.0065   0.0124  -0.0016  -0.0011  -0.0055   0.00    3.6
2017/12/19 09:18:36.000   40.070532543  116.275024444    93.7120   1   9   0.0074   0.0065   0.0124  -0.0013  -0.0012  -0.0054   0.00    3.6
2017/12/19 09:18:37.000   40.070532548  116.275024433    93.7087   1   9   0.0073   0.0065   0.0124  -0.0016  -0.0011  -0.0055   0.00    3.6
2017/12/19 09:18:38.000   40.070532541  116.275024429    93.7108   1   9   0.0074   0.0064   0.0124  -0.0017  -0.0009  -0.0055   0.00    3.6
2017/12/19 09:18:39.000   40.070532536  116.275024433    93.7115   1   9   0.0074   0.0065   0.0124  -0.0016  -0.0014  -0.0055   0.00    3.7
2017/12/19 09:18:40.000   40.070532548  116.275024430    93.7124   1   9   0.0073   0.0065   0.0124  -0.0014  -0.0011  -0.0055   0.00    3.7
2017/12/19 09:18:41.000   40.070532568  116.275024447    93.7130   1   9   0.0074   0.0064   0.0124  -0.0015  -0.0007  -0.0054   0.00    3.7
2017/12/19 09:18:42.000   40.070532538  116.275024435    93.7123   1   9   0.0073   0.0064   0.0124  -0.0018  -0.0011  -0.0055   0.00    3.7
2017/12/19 09:18:43.000   40.070532562  116.275024434    93.7121   1   9   0.0074   0.0064   0.0124  -0.0017  -0.0006  -0.0054   0.00    3.7
2017/12/19 09:18:44.000   40.070532543  116.275024443    93.7155   1   9   0.0072   0.0065   0.0124  -0.0017  -0.0006  -0.0056   0.00    3.7
2017/12/19 09:18:45.000   40.070532549  116.275024420    93.7103   1   9   0.0074   0.0064   0.0124  -0.0015  -0.0007  -0.0055   0.00    3.8
2017/12/19 09:18:46.000   40.070532529  116.275024428    93.7123   1   9   0.0073   0.0065   0.0124  -0.0016  -0.0007  -0.0055   0.00    3.8
2017/12/19 09:18:47.000   40.070532511  116.275024425    93.7116   1   9   0.0074   0.0065   0.0124  -0.0015  -0.0006  -0.0054   0.00    3.8
2017/12/19 09:18:48.000   40.070532532  116.275024454    93.7138   1   9   0.0073   0.0065   0.0124  -0.0017  -0.0009  -0.0055   0.00    3.8
2017/12/19 09:18:49.000   40.070532541  116.275024437    93.7119   1   9   0.0074   0.0065   0.0124  -0.0017  -0.0013  -0.0055   0.00    3.8
2017/12/19 09:18:50.000   40.070532539  116.275024443    93.7138   1   9   0.0073   0.0065   0.0124  -0.0014  -0.0013  -0.0055   0.00    3.9
2017/12/19 09:18:51.000   40.070532586  116.275024432    93.7086   1   9   0.0073   0.0065   0.0124  -0.0017  -0.0014  -0.0055   0.00    3.9
2017/12/19 09:18:52.000   40.070532559  116.275024452    93.7091   1   9   0.0072   0.0065   0.0124  -0.0015  -0.0014  -0.0056   0.00    3.9
2017/12/19 09:18:53.000   40.070532552  116.275024428    93.7121   1   9   0.0074   0.0065   0.0124  -0.0018  -0.0009  -0.0055   0.00    3.9
2017/12/19 09:18:54.000   40.070532541  116.275024435    93.7140   1   9   0.0072   0.0064   0.0124  -0.0015  -0.0013  -0.0055   0.00    3.9
2017/12/19 09:18:55.000   40.070532542  116.275024431    93.7106   1   9   0.0075   0.0065   0.0125  -0.0014  -0.0011  -0.0054   0.00    3.9
2017/12/19 09:18:56.000   40.070532544  116.275024422    93.7118   1   9   0.0074   0.0065   0.0124  -0.0013  -0.0010  -0.0054   0.00    3.9
2017/12/19 09:18:57.000   40.070532543  116.275024424    93.7108   1   9   0.0074   0.0065   0.0124  -0.0016  -0.0007  -0.0054   0.00    4.0
2017/12/19 09:18:58.000   40.070532532  116.275024431    93.7128   1   9   0.0074   0.0065   0.0124  -0.0016  -0.0009  -0.0054   0.00    4.0
2017/12/19 09:18:59.000   40.070532558  116.275024425    93.7141   1   9   0.0074   0.0064   0.0124  -0.0017  -0.0013  -0.0054   0.00    4.0
2017/12/19 09:19:00.000   40.070532574  116.275024444    93.7076   1   9   0.0074   0.0065   0.0124  -0.0015  -0.0011  -0.0054   0.00    4.0
2017/12/19 09:19:01.000   40.070532544  116.275024433    93.7145   1   9   0.0073   0.0066   0.0124  -0.0012  -0.0013  -0.0055   0.00    4.0
2017/12/19 09:19:02.000   40.070532557  116.275024430    93.7090   1   9   0.0073   0.0065   0.0124  -0.0018  -0.0008  -0.0055   0.00    4.0
2017/12/19 09:19:03.000   40.070532549  116.275024448    93.7132   1   9   0.0073   0.0065   0.0124  -0.0015  -0.0012  -0.0055   0.00    4.1
2017/12/19 09:19:04.000   40.070532563  116.275024438    93.7090   1   9   0.0074   0.0065   0.0124  -0.0017  -0.0012  -0.0054   0.00    4.1
2017/12/19 09:19:05.000   40.070532557  116.275024422    93.7111   1   9   0.0074   0.0064   0.0124  -0.0014  -0.0009  -0.0054   0.00    4.1
2017/12/19 09:19:06.000   40.070532555  116.275024433    93.7130   1   9   0.0074   0.0064   0.0124  -0.0018  -0.0008  -0.0054   0.00    4.1
2017/12/19 09:19:07.000   40.070532547  116.275024445    93.7143   1   9   0.0073   0.0064   0.0124  -0.0014  -0.0011  -0.0055   0.00    4.1
2017/12/19 09:19:08.000   40.070532545  116.275024445    93.7107   1   9   0.0073   0.0065   0.0124  -0.0015  -0.0011  -0.0056   0.00    4.1
2017/12/19 09:19:09.000   40.070532547  116.275024456    93.7118   1   9   0.0073   0.0065   0.0124  -0.0014  -0.0012  -0.0055   0.00    4.1
2017/12/19 09:19:10.000   40.070532537  116.275024454    93.7120   1   9   0.0072   0.0065   0.0124  -0.0015  -0.0013  -0.0056   0.00    4.1
2017/12/19 09:19:11.000   40.070532544  116.275024443    93.7104   1   9   0.0073   0.0065   0.0124  -0.0015  -0.0012  -0.0056   0.00    4.1
2017/12/19 09:19:12.000   40.070532536  116.275024423    93.7140   1   9   0.0075   0.0064   0.0124  -0.0016  -0.0011  -0.0054   0.00    4.1
2017/12/19 09:19:13.000   40.070532546  116.275024426    93.7127   1   9   0.0073   0.0065   0.0124  -0.0016  -0.0015  -0.0055   0.00    4.1
2017/12/19 09:19:14.000   40.070532564  116.275024425    93.7074   1   9   0.0074   0.0065   0.0124  -0.0016  -0.0013  -0.0054   0.00    4.1
2017/12/19 09:19:15.000   40.070532551  116.275024435    93.7117   1   9   0.0074   0.0065   0.0124  -0.0017  -0.0009  -0.0054   0.00    4.1
2017/12/19 09:19:16.000   40.070532526  116.275024416    93.7153   1   9   0.0074   0.0065   0.0124  -0.0016  -0.0011  -0.0055   0.00    4.1
2017/12/19 09:19:17.000   40.070532551  116.275024425    93.7141   1   9   0.0072   0.0064   0.0124  -0.0016  -0.0011  -0.0055   0.00    4.1
2017/12/19 09:19:18.000   40.070532545  116.275024415    93.7113   1   9   0.0073   0.0065   0.0124  -0.0014  -0.0010  -0.0054   0.00    4.1
2017/12/19 09:19:19.000   40.070532550  116.275024403    93.7104   1   9   0.0072   0.0065   0.0124  -0.0017  -0.0012  -0.0056   0.00    4.2
2017/12/19 09:19:20.000   40.070532544  116.275024417    93.7133   1   9   0.0074   0.0065   0.0124  -0.0017  -0.0007  -0.0055   0.00    4.2
2017/12/19 09:19:21.000   40.070532554  116.275024439    93.7142   1   9   0.0073   0.0066   0.0124  -0.0017  -0.0012  -0.0055   0.00    4.2
2017/12/19 09:19:22.000   40.070532547  116.275024432    93.7127   1   9   0.0073   0.0065   0.0124  -0.0015  -0.0010  -0.0056   0.00    4.2
2017/12/19 09:19:23.000   40.070532554  116.275024423    93.7132   1   9   0.0074   0.0064   0.0124  -0.0016  -0.0011  -0.0054   0.00    4.2
2017/12/19 09:19:24.000   40.070532548  116.275024426    93.7144   1   9   0.0074   0.0064   0.0124  -0.0017  -0.0011  -0.0054   0.00    4.2
2017/12/19 09:19:25.000   40.070532562  116.275024432    93.7141   1   9   0.0073   0.0065   0.0124  -0.0017  -0.0010  -0.0055   0.00    4.2
2017/12/19 09:19:26.000   40.070532548  116.275024417    93.7087   1   9   0.0074   0.0065   0.0124  -0.0015  -0.0011  -0.0054   0.00    4.2
2017/12/19 09:19:27.000   40.070532542  116.275024410    93.7133   1   9   0.0073   0.0065   0.0124  -0.0016  -0.0005  -0.0055   0.00    4.1
2017/12/19 09:19:28.000   40.070532569  116.275024404    93.7115   1   9   0.0072   0.0065   0.0124  -0.0015  -0.0011  -0.0055   0.00    4.1
2017/12/19 09:19:29.000   40.070532562  116.275024399    93.7072   1   9   0.0073   0.0065   0.0124  -0.0015  -0.0012  -0.0055   0.00    4.1
2017/12/19 09:19:30.000   40.070532534  116.275024424    93.7136   1   9   0.0074   0.0064   0.0124  -0.0014  -0.0013  -0.0054   0.00    4.1
2017/12/19 09:19:31.000   40.070532546  116.275024423    93.7119   1   9   0.0073   0.0064   0.0124  -0.0016  -0.0013  -0.0054   0.00    4.1
2017/12/19 09:19:32.000   40.070532561  116.275024434    93.7116   1   9   0.0075   0.0065   0.0124  -0.0017  -0.0012  -0.0054   0.00    4.1
2017/12/19 09:19:33.000   40.070532532  116.275024418    93.7145   1   9   0.0072   0.0065   0.0124  -0.0018  -0.0007  -0.0056   0.00    4.1
2017/12/19 09:19:34.000   40.070532540  116.275024437    93.7137   1   9   0.0073   0.0065   0.0124  -0.0014  -0.0015  -0.0055   0.00    4.1
2017/12/19 09:19:35.000   40.070532560  116.275024428    93.7102   1   9   0.0074   0.0065   0.0124  -0.0016  -0.0012  -0.0054   0.00    4.1
2017/12/19 09:19:36.000   40.070532558  116.275024403    93.7117   1   9   0.0074   0.0065   0.0124  -0.0016  -0.0010  -0.0054   0.00    4.1
2017/12/19 09:19:37.000   40.070532554  116.275024407    93.7111   1   9   0.0072   0.0065   0.0124  -0.0016  -0.0014  -0.0056   0.00    4.1
2017/12/19 09:19:38.000   40.070532538  116.275024427    93.7155   1   9   0.0074   0.0065   0.0125  -0.0015  -0.0012  -0.0054   0.00    4.1
2017/12/19 09:19:39.000   40.070532552  116.275024411    93.7144   1   9   0.0073   0.0065   0.0124  -0.0016  -0.0011  -0.0055   0.00    4.1
2017/12/19 09:19:40.000   40.070532546  116.275024422    93.7126   1   9   0.0074   0.0065   0.0124  -0.0015  -0.0012  -0.0054   0.00    4.1
2017/12/19 09:19:41.000   40.070532543  116.275024417    93.7167   1   9   0.0074   0.0065   0.0124  -0.0015  -0.0013  -0.0054   0.00    4.1
2017/12/19 09:19:42.000   40.070532558  116.275024397    93.7112   1   9   0.0072   0.0065   0.0124  -0.0010  -0.0014  -0.0056   0.00    4.1
2017/12/19 09:19:43.000   40.070532569  116.275024422    93.7093   1   9   0.0073   0.0065   0.0124  -0.0017  -0.0010  -0.0055   0.00    4.0
2017/12/19 09:19:44.000   40.070532557  116.275024405    93.7144   1   9   0.0073   0.0065   0.0124  -0.0016  -0.0011  -0.0056   0.00    4.0
2017/12/19 09:19:45.000   40.070532565  116.275024424    93.7145   1   9   0.0073   0.0065   0.0124  -0.0016  -0.0009  -0.0054   0.00    4.0
2017/12/19 09:19:46.000   40.070532563  116.275024403    93.7145   1   9   0.0074   0.0065   0.0124  -0.0014  -0.0016  -0.0055   0.00    4.0
2017/12/19 09:19:47.000   40.070532593  116.275024423    93.7091   1   9   0.0073   0.0065   0.0124  -0.0016  -0.0013  -0.0055   0.00    4.0
2017/12/19 09:19:48.000   40.070532563  116.275024445    93.7138   1   9   0.0074   0.0064   0.0124  -0.0015  -0.0014  -0.0054   0.00    4.0
2017/12/19 09:19:49.000   40.070532531  116.275024419    93.7143   1   9   0.0074   0.0064   0.0124  -0.0015  -0.0010  -0.0054   0.00    4.1
2017/12/19 09:19:50.000   40.070532566  116.275024424    93.7134   1   9   0.0075   0.0064   0.0124  -0.0014  -0.0008  -0.0054   0.00    4.0
2017/12/19 09:19:51.000   40.070532541  116.275024429    93.7160   1   9   0.0073   0.0065   0.0124  -0.0017  -0.0013  -0.0055   0.00    4.1
2017/12/19 09:19:52.000   40.070532541  116.275024414    93.7121   1   9   0.0074   0.0064   0.0124  -0.0015  -0.0012  -0.0055   0.00    4.1
2017/12/19 09:19:53.000   40.070532564  116.275024426    93.7125   1   9   0.0073   0.0064   0.0124  -0.0015  -0.0010  -0.0055   0.00    4.1
2017/12/19 09:19:54.000   40.070532568  116.275024396    93.7111   1   9   0.0075   0.0065   0.0124  -0.0017  -0.0005  -0.0054   0.00    4.1
2017/12/19 09:19:55.000   40.070532559  116.275024397    93.7110   1   9   0.0073   0.0065   0.0124  -0.0017  -0.0011  -0.0055   0.00    4.0
2017/12/19 09:19:56.000   40.070532549  116.275024404    93.7129   1   9   0.0074   0.0064   0.0124  -0.0015  -0.0009  -0.0054   0.00    4.1
2017/12/19 09:19:57.000   40.070532549  116.275024411    93.7100   1   9   0.0074   0.0065   0.0124  -0.0016  -0.0012  -0.0055   0.00    4.1
2017/12/19 09:19:58.000   40.070532575  116.275024396    93.7092   1   9   0.0073   0.0065   0.0124  -0.0016  -0.0008  -0.0055   0.00    4.1
2017/12/19 09:19:59.000   40.070532564  116.275024429    93.7133   1   9   0.0073   0.0064   0.0124  -0.0015  -0.0008  -0.0055   0.00    4.1
2017/12/19 09:20:00.000   40.070532545  116.275024424    93.7115   1   9   0.0074   0.0064   0.0124  -0.0015  -0.0011  -0.0055   0.00    4.1
2017/12/19 09:20:01.000   40.070532549  116.275024398    93.7110   1   9   0.0073   0.0064   0.0124  -0.0017  -0.0012  -0.0055   0.00    4.1
2017/12/19 09:20:02.000   40.070532564  116.275024414    93.7108   1   9   0.0073   0.0064   0.0124  -0.0014  -0.0010  -0.0055   0.00    4.1
2017/12/19 09:20:03.000   40.070532572  116.275024402    93.7140   1   9   0.0074   0.0065   0.0124  -0.0015  -0.0012  -0.0055   0.00    4.1
2017/12/19 09:20:04.000   40.070532582  116.275024393    93.7091   1   9   0.0074   0.0064   0.0124  -0.0015  -0.0013  -0.0055   0.00    4.1
2017/12/19 09:20:05.000   40.070532540  116.275024411    93.7120   1   9   0.0074   0.0064   0.0124  -0.0016  -0.0009  -0.0054   0.00    4.1
2017/12/19 09:20:06.000   40.070532558  116.275024438    93.7113   1   9   0.0073   0.0065   0.0124  -0.0013  -0.0012  -0.0055   0.00    4.1
2017/12/19 09:20:07.000   40.070532581  116.275024433    93.7107   1   9   0.0073   0.0064   0.0124  -0.0017  -0.0012  -0.0056   0.00    4.1
2017/12/19 09:20:08.000   40.070532551  116.275024409    93.7094   1   9   0.0074   0.0064   0.0124  -0.0015  -0.0008  -0.0055   0.00    4.1
2017/12/19 09:20:09.000   40.070532556  116.275024423    93.7146   1   9   0.0074   0.0065   0.0124  -0.0016  -0.0014  -0.0054   0.00    4.1
2017/12/19 09:20:10.000   40.070532562  116.275024417    93.7134   1   9   0.0073   0.0065   0.0124  -0.0015  -0.0010  -0.0055   0.00    4.1
2017/12/19 09:20:11.000   40.070532544  116.275024406    93.7135   1   9   0.0074   0.0066   0.0124  -0.0017  -0.0009  -0.0055   0.00    4.1
2017/12/19 09:20:12.000   40.070532578  116.275024417    93.7126   1   9   0.0074   0.0065   0.0124  -0.0015  -0.0010  -0.0055   0.00    4.2
2017/12/19 09:20:13.000   40.070532553  116.275024407    93.7098   1   9   0.0074   0.0065   0.0124  -0.0015  -0.0012  -0.0055   0.00    4.2
2017/12/19 09:20:14.000   40.070532554  116.275024416    93.7147   1   9   0.0073   0.0065   0.0124  -0.0013  -0.0014  -0.0055   0.00    4.2
2017/12/19 09:20:15.000   40.070532577  116.275024434    93.7106   1   9   0.0073   0.0065   0.0124  -0.0017  -0.0004  -0.0055   0.00    4.2
2017/12/19 09:20:16.000   40.070532579  116.275024414    93.7070   1   9   0.0074   0.0065   0.0124  -0.0017  -0.0012  -0.0055   0.00    4.2
2017/12/19 09:20:17.000   40.070532563  116.275024428    93.7111   1   9   0.0075   0.0066   0.0124  -0.0015  -0.0012  -0.0054   0.00    4.3
2017/12/19 09:20:18.000   40.070532558  116.275024414    93.7090   1   9   0.0075   0.0065   0.0124  -0.0014  -0.0010  -0.0054   0.00    4.3
2017/12/19 09:20:19.000   40.070532565  116.275024421    93.7070   1   9   0.0074   0.0065   0.0124  -0.0015  -0.0012  -0.0055   0.00    4.3
2017/12/19 09:20:20.000   40.070532586  116.275024438    93.7095   1   9   0.0074   0.0065   0.0124  -0.0016  -0.0010  -0.0054   0.00    4.3
2017/12/19 09:20:21.000   40.070532558  116.275024431    93.7115   1   9   0.0073   0.0065   0.0124  -0.0013  -0.0010  -0.0055   0.00    4.3
2017/12/19 09:20:22.000   40.070532561  116.275024420    93.7105   1   9   0.0073   0.0065   0.0124  -0.0017  -0.0010  -0.0055   0.00    4.3
2017/12/19 09:20:23.000   40.070532578  116.275024414    93.7102   1   9   0.0075   0.0065   0.0125  -0.0013  -0.0015  -0.0054   0.00    4.4
2017/12/19 09:20:24.000   40.070532569  116.275024428    93.7126   1   9   0.0074   0.0065   0.0125  -0.0014  -0.0011  -0.0054   0.00    4.4
2017/12/19 09:20:25.000   40.070532553  116.275024408    93.7107   1   9   0.0073   0.0064   0.0124  -0.0015  -0.0009  -0.0055   0.00    4.4
2017/12/19 09:20:26.000   40.070532562  116.275024434    93.7112   1   9   0.0074   0.0065   0.0124  -0.0013  -0.0011  -0.0054   0.00    4.4
2017/12/19 09:20:27.000   40.070532559  116.275024404    93.7117   1   9   0.0074   0.0064   0.0124  -0.0016  -0.0009  -0.0054   0.00    4.4
2017/12/19 09:20:28.000   40.070532579  116.275024410    93.7098   1   9   0.0074   0.0065   0.0124  -0.0015  -0.0011  -0.0054   0.00    4.4
2017/12/19 09:20:29.000   40.070532566  116.275024447    93.7122   1   9   0.0074   0.0065   0.0124  -0.0015  -0.0011  -0.0055   0.00    4.5
2017/12/19 09:20:30.000   40.070532555  116.275024436    93.7091   1   9   0.0073   0.0065   0.0124  -0.0016  -0.0010  -0.0056   0.00    4.5
2017/12/19 09:20:31.000   40.070532553  116.275024449    93.7106   1   9   0.0075   0.0065   0.0124  -0.0017  -0.0009  -0.0054   0.00    4.5
2017/12/19 09:20:32.000   40.070532558  116.275024440    93.7137   1   9   0.0073   0.0064   0.0124  -0.0015  -0.0013  -0.0055   0.00    4.5
2017/12/19 09:20:33.000   40.070532559  116.275024442    93.7117   1   9   0.0073   0.0065   0.0124  -0.0015  -0.0009  -0.0055   0.00    4.5
2017/12/19 09:20:34.000   40.070532551  116.275024415    93.7151   1   9   0.0074   0.0065   0.0124  -0.0017  -0.0008  -0.0054   0.00    4.6
2017/12/19 09:20:35.000   40.070532572  116.275024432    93.7102   1   9   0.0074   0.0065   0.0124  -0.0014  -0.0012  -0.0055   0.00    4.6
2017/12/19 09:20:36.000   40.070532563  116.275024422    93.7112   1   9   0.0073   0.0065   0.0124  -0.0014  -0.0009  -0.0055   0.00    4.6
2017/12/19 09:20:37.000   40.070532564  116.275024438    93.7117   1   9   0.0073   0.0064   0.0124  -0.0016  -0.0010  -0.0055   0.00    4.6
2017/12/19 09:20:38.000   40.070532546  116.275024427    93.7091   1   9   0.0075   0.0065   0.0124  -0.0017  -0.0013  -0.0054   0.00    4.6
2017/12/19 09:20:39.000   40.070532567  116.275024433    93.7116   1   9   0.0074   0.0064   0.0124  -0.0014  -0.0010  -0.0055   0.00    4.6
2017/12/19 09:20:40.000   40.070532553  116.275024431    93.7152   1   9   0.0074   0.0065   0.0124  -0.0016  -0.0014  -0.0054   0.00    4.7
2017/12/19 09:20:41.000   40.070532541  116.275024421    93.7144   1   9   0.0074   0.0065   0.0124  -0.0015  -0.0014  -0.0054   0.00    4.7
2017/12/19 09:20:42.000   40.070532556  116.275024410    93.7130   1   9   0.0071   0.0065   0.0124  -0.0017  -0.0008  -0.0056   0.00    4.7
2017/12/19 09:20:43.000   40.070532550  116.275024458    93.7111   1   9   0.0074   0.0065   0.0124  -0.0013  -0.0011  -0.0055   0.00    4.7
2017/12/19 09:20:44.000   40.070532528  116.275024430    93.7154   1   9   0.0073   0.0065   0.0124  -0.0016  -0.0011  -0.0055   0.00    4.7
2017/12/19 09:20:45.000   40.070532549  116.275024421    93.7151   1   9   0.0073   0.0065   0.0124  -0.0016  -0.0012  -0.0056   0.00    4.7
2017/12/19 09:20:46.000   40.070532537  116.275024441    93.7104   1   9   0.0073   0.0065   0.0124  -0.0014  -0.0005  -0.0055   0.00    4.8
2017/12/19 09:20:47.000   40.070532552  116.275024416    93.7113   1   9   0.0075   0.0064   0.0124  -0.0014  -0.0007  -0.0054   0.00    4.8
2017/12/19 09:20:48.000   40.070532535  116.275024420    93.7141   1   9   0.0073   0.0065   0.0124  -0.0015  -0.0011  -0.0055   0.00    4.8
2017/12/19 09:20:49.000   40.070532554  116.275024435    93.7104   1   9   0.0074   0.0065   0.0124  -0.0015  -0.0008  -0.0055   0.00    4.8
2017/12/19 09:20:50.000   40.070532548  116.275024445    93.7099   1   9   0.0074   0.0064   0.0124  -0.0015  -0.0011  -0.0054   0.00    4.8
2017/12/19 09:20:51.000   40.070532548  116.275024418    93.7110   1   9   0.0074   0.0064   0.0124  -0.0013  -0.0012  -0.0054   0.00    4.8
2017/12/19 09:20:52.000   40.070532540  116.275024447    93.7135   1   9   0.0072   0.0065   0.0124  -0.0015  -0.0014  -0.0055   0.00    4.8
2017/12/19 09:20:53.000   40.070532551  116.275024396    93.7117   1   9   0.0073   0.0065   0.0124  -0.0016  -0.0012  -0.0054   0.00    4.8
2017/12/19 09:20:54.000   40.070532536  116.275024445    93.7098   1   9   0.0073   0.0064   0.0124  -0.0014  -0.0010  -0.0055   0.00    4.8
2017/12/19 09:20:55.000   40.070532562  116.275024432    93.7123   1   9   0.0074   0.0064   0.0124  -0.0015  -0.0010  -0.0055   0.00    4.8
2017/12/19 09:20:56.000   40.070532546  116.275024437    93.7115   1   9   0.0074   0.0064   0.0124  -0.0016  -0.0008  -0.0054   0.00    4.8
2017/12/19 09:20:57.000   40.070532550  116.275024427    93.7104   1   9   0.0073   0.0065   0.0124  -0.0016  -0.0010  -0.0056   0.00    4.8
2017/12/19 09:20:58.000   40.070532557  116.275024453    93.7126   1   9   0.0073   0.0064   0.0124  -0.0013  -0.0012  -0.0055   0.00    4.9
2017/12/19 09:20:59.000   40.070532544  116.275024427    93.7116   1   9   0.0074   0.0064   0.0124  -0.0011  -0.0011  -0.0054   0.00    4.9
2017/12/19 09:21:00.000   40.070532558  116.275024445    93.7141   1   9   0.0073   0.0065   0.0124  -0.0016  -0.0011  -0.0055   0.00    4.9
2017/12/19 09:21:01.000   40.070532542  116.275024429    93.7144   1   9   0.0074   0.0065   0.0124  -0.0013  -0.0011  -0.0054   0.00    4.9
2017/12/19 09:21:02.000   40.070532546  116.275024428    93.7120   1   9   0.0074   0.0065   0.0124  -0.0016  -0.0007  -0.0054   0.00    4.9
2017/12/19 09:21:03.000   40.070532548  116.275024443    93.7156   1   9   0.0075   0.0064   0.0124  -0.0013  -0.0012  -0.0054   0.00    4.9
2017/12/19 09:21:04.000   40.070532551  116.275024450    93.7147   1   9   0.0075   0.0065   0.0124  -0.0015  -0.0011  -0.0053   0.00    4.9
2017/12/19 09:21:05.000   40.070532534  116.275024427    93.7133   1   9   0.0073   0.0064   0.0124  -0.0015  -0.0010  -0.0055   0.00    4.9
2017/12/19 09:21:06.000   40.070532530  116.275024443    93.7129   1   9   0.0073   0.0065   0.0124  -0.0014  -0.0010  -0.0055   0.00    5.0
2017/12/19 09:21:07.000   40.070532550  116.275024425    93.7116   1   9   0.0073   0.0064   0.0124  -0.0015  -0.0010  -0.0054   0.00    5.0
2017/12/19 09:21:08.000   40.070532529  116.275024420    93.7127   1   9   0.0074   0.0065   0.0124  -0.0014  -0.0012  -0.0055   0.00    5.0
2017/12/19 09:21:09.000   40.070532527  116.275024454    93.7127   1   9   0.0074   0.0065   0.0124  -0.0013  -0.0011  -0.0054   0.00    5.0
2017/12/19 09:21:10.000   40.070532536  116.275024450    93.7147   1   9   0.0073   0.0065   0.0124  -0.0017  -0.0011  -0.0054   0.00    5.0
2017/12/19 09:21:11.000   40.070532527  116.275024431    93.7175   1   9   0.0073   0.0064   0.0124  -0.0014  -0.0011  -0.0055   0.00    5.0
2017/12/19 09:21:12.000   40.070532557  116.275024430    93.7142   1   9   0.0074   0.0065   0.0124  -0.0015  -0.0008  -0.0054   0.00    5.0
2017/12/19 09:21:13.000   40.070532535  116.275024442    93.7137   1   9   0.0075   0.0064   0.0124  -0.0015  -0.0011  -0.0054   0.00    5.1
2017/12/19 09:21:14.000   40.070532536  116.275024450    93.7131   1   9   0.0074   0.0064   0.0124  -0.0015  -0.0011  -0.0055   0.00    5.1
2017/12/19 09:21:15.000   40.070532562  116.275024454    93.7153   1   9   0.0072   0.0065   0.0124  -0.0015  -0.0007  -0.0056   0.00    5.1
2017/12/19 09:21:16.000   40.070532546  116.275024437    93.7129   1   9   0.0073   0.0064   0.0124  -0.0016  -0.0005  -0.0055   0.00    5.1
2017/12/19 09:21:17.000   40.070532548  116.275024456    93.7107   1   9   0.0073   0.0065   0.0124  -0.0015  -0.0007  -0.0055   0.00    5.1
2017/12/19 09:21:18.000   40.070532532  116.275024441    93.7095   1   9   0.0074   0.0064   0.0124  -0.0013  -0.0013  -0.0054   0.00    5.1
2017/12/19 09:21:19.000   40.070532539  116.275024452    93.7134   1   9   0.0074   0.0065   0.0124  -0.0016  -0.0014  -0.0055   0.00    5.1
2017/12/19 09:21:20.000   40.070532554  116.275024450    93.7086   1   9   0.0073   0.0065   0.0124  -0.0017  -0.0011  -0.0056   0.00    5.1
2017/12/19 09:21:21.000   40.070532533  116.275024439    93.7126   1   9   0.0073   0.0065   0.0124  -0.0014  -0.0010  -0.0055   0.00    5.1
2017/12/19 09:21:22.000   40.070532532  116.275024439    93.7144   1   9   0.0073   0.0065   0.0124  -0.0015  -0.0011  -0.0056   0.00    5.1
2017/12/19 09:21:23.000   40.070532539  116.275024460    93.7103   1   9   0.0075   0.0064   0.0124  -0.0015  -0.0009  -0.0054   0.00    5.1
2017/12/19 09:21:24.000   40.070532538  116.275024464    93.7148   1   9   0.0073   0.0065   0.0124  -0.0016  -0.0010  -0.0055   0.00    5.1
2017/12/19 09:21:25.000   40.070532524  116.275024426    93.7142   1   9   0.0075   0.0064   0.0124  -0.0013  -0.0010  -0.0053   0.00    5.1
2017/12/19 09:21:26.000   40.070532544  116.275024443    93.7107   1   9   0.0073   0.0064   0.0124  -0.0015  -0.0009  -0.0055   0.00    5.2
2017/12/19 09:21:27.000   40.070532522  116.275024442    93.7142   1   9   0.0074   0.0064   0.0124  -0.0015  -0.0009  -0.0054   0.00    5.2
2017/12/19 09:21:28.000   40.070532526  116.275024422    93.7137   1   9   0.0072   0.0065   0.0124  -0.0018  -0.0009  -0.0056   0.00    5.2
2017/12/19 09:21:29.000   40.070532531  116.275024450    93.7137   1   9   0.0074   0.0063   0.0124  -0.0014  -0.0013  -0.0055   0.00    5.2
2017/12/19 09:21:30.000   40.070532521  116.275024437    93.7109   1   9   0.0075   0.0065   0.0124  -0.0014  -0.0011  -0.0054   0.00    5.2
2017/12/19 09:21:31.000   40.070532517  116.275024442    93.7152   1   9   0.0073   0.0064   0.0124  -0.0015  -0.0012  -0.0054   0.00    5.2
2017/12/19 09:21:32.000   40.070532532  116.275024445    93.7149   1   9   0.0074   0.0065   0.0124  -0.0016  -0.0009  -0.0054   0.00    5.2
2017/12/19 09:21:33.000   40.070532513  116.275024440    93.7152   1   9   0.0074   0.0064   0.0124  -0.0015  -0.0010  -0.0054   0.00    5.2
2017/12/19 09:21:34.000   40.070532521  116.275024440    93.7131   1   9   0.0073   0.0065   0.0124  -0.0014  -0.0006  -0.0055   0.00    5.2
2017/12/19 09:21:35.000   40.070532527  116.275024430    93.7122   1   9   0.0073   0.0064   0.0124  -0.0016  -0.0011  -0.0055   0.00    5.2
2017/12/19 09:21:36.000   40.070532524  116.275024438    93.7108   1   9   0.0075   0.0064   0.0124  -0.0013  -0.0009  -0.0054   0.00    5.3
2017/12/19 09:21:37.000   40.070532531  116.275024441    93.7134   1   9   0.0074   0.0065   0.0124  -0.0014  -0.0013  -0.0054   0.00    5.3
2017/12/19 09:21:38.000   40.070532528  116.275024457    93.7110   1   9   0.0073   0.0064   0.0124  -0.0015  -0.0009  -0.0055   0.00    5.3
2017/12/19 09:21:39.000   40.070532533  116.275024445    93.7115   1   9   0.0075   0.0065   0.0124  -0.0014  -0.0009  -0.0054   0.00    5.3
2017/12/19 09:21:40.000   40.070532519  116.275024413    93.7105   1   9   0.0073   0.0064   0.0124  -0.0012  -0.0010  -0.0055   0.00    5.3
2017/12/19 09:21:41.000   40.070532531  116.275024436    93.7111   1   9   0.0074   0.0064   0.0124  -0.0011  -0.0007  -0.0055   0.00    5.3
2017/12/19 09:21:42.000   40.070532541  116.275024434    93.7107   1   9   0.0073   0.0065   0.0124  -0.0014  -0.0013  -0.0055   0.00    5.3
2017/12/19 09:21:43.000   40.070532510  116.275024422    93.7127   1   9   0.0074   0.0065   0.0124  -0.0016  -0.0015  -0.0054   0.00    5.3
2017/12/19 09:21:44.000   40.070532541  116.275024442    93.7098   1   9   0.0075   0.0065   0.0125  -0.0012  -0.0012  -0.0053   0.00    5.3
2017/12/19 09:21:45.000   40.070532527  116.275024434    93.7135   1   9   0.0073   0.0064   0.0124  -0.0013  -0.0014  -0.0055   0.00    5.4
2017/12/19 09:21:46.000   40.070532536  116.275024443    93.7121   1   9   0.0073   0.0064   0.0124  -0.0015  -0.0012  -0.0055   0.00    5.4
2017/12/19 09:21:47.000   40.070532520  116.275024444    93.7122   1   9   0.0075   0.0064   0.0125  -0.0013  -0.0010  -0.0053   0.00    5.4
2017/12/19 09:21:48.000   40.070532535  116.275024450    93.7149   1   9   0.0073   0.0064   0.0124  -0.0014  -0.0013  -0.0055   0.00    5.4
2017/12/19 09:21:49.000   40.070532504  116.275024458    93.7155   1   9   0.0073   0.0065   0.0124  -0.0015  -0.0009  -0.0055   0.00    5.4
2017/12/19 09:21:50.000   40.070532515  116.275024417    93.7162   1   9   0.0074   0.0065   0.0124  -0.0017  -0.0009  -0.0055   0.00    5.5
2017/12/19 09:21:51.000   40.070532530  116.275024440    93.7150   1   9   0.0075   0.0065   0.0124  -0.0015  -0.0011  -0.0054   0.00    5.5
2017/12/19 09:21:52.000   40.070532543  116.275024447    93.7111   1   9   0.0074   0.0065   0.0124  -0.0013  -0.0009  -0.0054   0.00    5.5
2017/12/19 09:21:53.000   40.070532520  116.275024429    93.7123   1   9   0.0074   0.0065   0.0124  -0.0016  -0.0007  -0.0054   0.00    5.5
2017/12/19 09:21:54.000   40.070532519  116.275024439    93.7175   1   9   0.0071   0.0064   0.0123  -0.0015  -0.0008  -0.0056   0.00    5.5
2017/12/19 09:21:55.000   40.070532526  116.275024431    93.7162   1   9   0.0074   0.0064   0.0124  -0.0012  -0.0011  -0.0054   0.00    5.5
2017/12/19 09:21:56.000   40.070532519  116.275024443    93.7153   1   9   0.0074   0.0063   0.0124  -0.0013  -0.0012  -0.0054   0.00    5.5
2017/12/19 09:21:57.000   40.070532518  116.275024434    93.7151   1   9   0.0073   0.0064   0.0124  -0.0016  -0.0010  -0.0055   0.00    5.6
2017/12/19 09:21:58.000   40.070532518  116.275024434    93.7150   1   9   0.0073   0.0065   0.0124  -0.0015  -0.0010  -0.0055   0.00    5.6
2017/12/19 09:21:59.000   40.070532524  116.275024423    93.7145   1   9   0.0074   0.0064   0.0124  -0.0013  -0.0012  -0.0054   0.00    5.6
2017/12/19 09:22:00.000   40.070532523  116.275024436    93.7133   1   9   0.0073   0.0065   0.0124  -0.0013  -0.0013  -0.0055   0.00    5.6
2017/12/19 09:22:01.000   40.070532538  116.275024449    93.7132   1   9   0.0073   0.0065   0.0124  -0.0014  -0.0011  -0.0055   0.00    5.6
2017/12/19 09:22:02.000   40.070532514  116.275024426    93.7205   1   9   0.0075   0.0065   0.0124  -0.0016  -0.0010  -0.0054   0.00    5.6
2017/12/19 09:22:03.000   40.070532521  116.275024461    93.7145   1   9   0.0072   0.0064   0.0124  -0.0013  -0.0012  -0.0055   0.00    5.6
2017/12/19 09:22:04.000   40.070532520  116.275024430    93.7120   1   9   0.0073   0.0065   0.0124  -0.0014  -0.0012  -0.0055   0.00    5.6
2017/12/19 09:22:05.000   40.070532516  116.275024432    93.7124   1   9   0.0074   0.0065   0.0124  -0.0013  -0.0011  -0.0054   0.00    5.6
2017/12/19 09:22:06.000   40.070532527  116.275024444    93.7116   1   9   0.0074   0.0064   0.0124  -0.0013  -0.0012  -0.0054   0.00    5.7
2017/12/19 09:22:07.000   40.070532517  116.275024437    93.7143   1   9   0.0073   0.0065   0.0124  -0.0017  -0.0011  -0.0055   0.00    5.7
2017/12/19 09:22:08.000   40.070532521  116.275024427    93.7115   1   9   0.0073   0.0064   0.0124  -0.0014  -0.0011  -0.0055   0.00    5.7
2017/12/19 09:22:09.001   40.070532541  116.275024454    93.7133   1   9   0.0073   0.0064   0.0124  -0.0015  -0.0012  -0.0055   0.00    5.7
2017/12/19 09:22:10.000   40.070532516  116.275024431    93.7143   1   9   0.0074   0.0064   0.0124  -0.0015  -0.0011  -0.0055  -0.00    5.7
2017/12/19 09:22:11.000   40.070532519  116.275024413    93.7152   1   9   0.0074   0.0064   0.0124  -0.0014  -0.0011  -0.0054  -0.00    5.7
2017/12/19 09:22:12.000   40.070532520  116.275024420    93.7126   1   9   0.0075   0.0064   0.0124  -0.0014  -0.0015  -0.0054  -0.00    5.7
2017/12/19 09:22:13.000   40.070532522  116.275024445    93.7127   1   9   0.0075   0.0064   0.0124  -0.0014  -0.0012  -0.0054  -0.00    5.8
2017/12/19 09:22:14.000   40.070532533  116.275024432    93.7129   1   9   0.0073   0.0065   0.0125  -0.0016  -0.0011  -0.0055  -0.00    5.8
2017/12/19 09:22:15.000   40.070532540  116.275024439    93.7122   1   9   0.0073   0.0064   0.0124  -0.0015  -0.0007  -0.0055  -0.00    5.8
2017/12/19 09:22:16.000   40.070532516  116.275024422    93.7127   1   9   0.0075   0.0064   0.0124  -0.0016  -0.0012  -0.0054  -0.00    5.8
2017/12/19 09:22:17.000   40.070532534  116.275024429    93.7127   1   9   0.0073   0.0065   0.0124  -0.0015  -0.0011  -0.0055  -0.00    5.8
2017/12/19 09:22:18.000   40.070532512  116.275024435    93.7133   1   9   0.0074   0.0065   0.0124  -0.0017  -0.0012  -0.0054  -0.00    5.9
2017/12/19 09:22:19.000   40.070532520  116.275024404    93.7183   1   8   0.0073   0.0072   0.0135  -0.0014  -0.0041  -0.0052  -0.00    5.9
2017/12/19 09:22:20.000   40.070532657  116.275023078    93.6372   2   9   0.0155   0.0303   0.0299  -0.0046  -0.0057  -0.0092  -0.00    1.5
2017/12/19 09:22:21.000   40.070532684  116.275023117    93.6316   2   9   0.0155   0.0302   0.0296  -0.0045  -0.0048  -0.0093  -0.00    2.1
2017/12/19 09:22:22.000   40.070532671  116.275023112    93.6333   2   9   0.0154   0.0301   0.0295  -0.0045  -0.0046  -0.0092  -0.00    2.6
2017/12/19 09:22:23.000   40.070532515  116.275024441    93.7148   1   9   0.0073   0.0064   0.0124  -0.0015  -0.0009  -0.0055  -0.00    3.1
2017/12/19 09:22:24.000   40.070532551  116.275024448    93.7120   1   9   0.0074   0.0065   0.0125  -0.0012  -0.0010  -0.0054  -0.00    3.7
2017/12/19 09:22:25.000   40.070532516  116.275024445    93.7143   1   9   0.0073   0.0065   0.0124  -0.0013  -0.0013  -0.0055  -0.00    4.2
2017/12/19 09:22:26.000   40.070532524  116.275024437    93.7120   1   9   0.0073   0.0064   0.0124  -0.0017  -0.0011  -0.0055  -0.00    4.8
2017/12/19 09:22:27.000   40.070532522  116.275024428    93.7132   1   9   0.0073   0.0064   0.0124  -0.0015  -0.0010  -0.0055  -0.00    5.3
2017/12/19 09:22:28.000   40.070532537  116.275024447    93.7149   1   9   0.0074   0.0065   0.0125  -0.0013  -0.0011  -0.0054  -0.00    5.8
2017/12/19 09:22:29.000   40.070532528  116.275024442    93.7107   1   9   0.0075   0.0064   0.0124  -0.0014  -0.0010  -0.0054  -0.00    6.3
2017/12/19 09:22:30.000   40.070532535  116.275024420    93.7101   1   9   0.0073   0.0065   0.0124  -0.0015  -0.0013  -0.0055  -0.00    6.3
2017/12/19 09:22:31.000   40.070532544  116.275024440    93.7111   1   9   0.0073   0.0065   0.0124  -0.0013  -0.0013  -0.0055  -0.00    6.3
2017/12/19 09:22:32.000   40.070532531  116.275024408    93.7106   1   9   0.0073   0.0064   0.0124  -0.0015  -0.0010  -0.0055  -0.00    6.4
2017/12/19 09:22:33.000   40.070532523  116.275024430    93.7121   1   9   0.0073   0.0064   0.0124  -0.0014  -0.0011  -0.0055  -0.00    6.4
2017/12/19 09:22:34.000   40.070532518  116.275024433    93.7144   1   9   0.0074   0.0065   0.0125  -0.0014  -0.0009  -0.0055  -0.00    6.4
2017/12/19 09:22:35.000   40.070532527  116.275024442    93.7152   1   9   0.0074   0.0064   0.0125  -0.0014  -0.0011  -0.0055  -0.00    6.5
2017/12/19 09:22:36.000   40.070532537  116.275024434    93.7129   1   9   0.0074   0.0064   0.0124  -0.0015  -0.0004  -0.0054  -0.00    6.5
2017/12/19 09:22:37.000   40.070532524  116.275024455    93.7168   1   9   0.0073   0.0065   0.0124  -0.0016  -0.0010  -0.0056  -0.00    6.5
2017/12/19 09:22:38.000   40.070532529  116.275024448    93.7122   1   9   0.0073   0.0064   0.0124  -0.0014  -0.0012  -0.0055  -0.00    6.5
2017/12/19 09:22:39.000   40.070532520  116.275024444    93.7147   1   9   0.0074   0.0065   0.0124  -0.0013  -0.0012  -0.0055  -0.00    6.6
2017/12/19 09:22:40.000   40.070532523  116.275024433    93.7130   1   9   0.0075   0.0065   0.0125  -0.0014  -0.0013  -0.0053  -0.00    6.6
2017/12/19 09:22:41.000   40.070532529  116.275024444    93.7130   1   9   0.0074   0.0064   0.0124  -0.0014  -0.0013  -0.0054  -0.00    6.6
2017/12/19 09:22:42.000   40.070532548  116.275024440    93.7132   1   9   0.0073   0.0064   0.0124  -0.0017  -0.0010  -0.0055  -0.00    6.6
2017/12/19 09:22:43.000   40.070532538  116.275024436    93.7100   1   9   0.0074   0.0063   0.0124  -0.0015  -0.0011  -0.0054  -0.00    6.6
2017/12/19 09:22:44.000   40.070532533  116.275024444    93.7143   1   9   0.0074   0.0065   0.0124  -0.0013  -0.0012  -0.0054  -0.00    6.6
2017/12/19 09:22:45.000   40.070532510  116.275024445    93.7107   1   9   0.0073   0.0064   0.0124  -0.0015  -0.0010  -0.0055  -0.00    6.6
2017/12/19 09:22:46.000   40.070532507  116.275024437    93.7146   1   9   0.0073   0.0064   0.0124  -0.0014  -0.0008  -0.0055  -0.00    6.7
2017/12/19 09:22:47.000   40.070532526  116.275024441    93.7114   1   9   0.0074   0.0065   0.0124  -0.0015  -0.0013  -0.0055  -0.00    6.7
2017/12/19 09:22:48.000   40.070532522  116.275024443    93.7141   1   9   0.0074   0.0064   0.0124  -0.0011  -0.0013  -0.0054  -0.00    6.7
2017/12/19 09:22:49.000   40.070532529  116.275024447    93.7144   1   9   0.0073   0.0064   0.0124  -0.0015  -0.0010  -0.0055  -0.00    6.8
2017/12/19 09:22:50.000   40.070532526  116.275024430    93.7146   1   9   0.0074   0.0065   0.0124  -0.0015  -0.0014  -0.0055  -0.00    6.8
2017/12/19 09:22:51.000   40.070532540  116.275024429    93.7117   1   9   0.0073   0.0064   0.0124  -0.0015  -0.0007  -0.0055  -0.00    6.8
2017/12/19 09:22:52.000   40.070532524  116.275024454    93.7113   1   9   0.0074   0.0065   0.0125  -0.0014  -0.0013  -0.0054  -0.00    6.8
2017/12/19 09:22:53.000   40.070532529  116.275024442    93.7156   1   9   0.0073   0.0064   0.0124  -0.0015  -0.0010  -0.0055  -0.00    6.8
2017/12/19 09:22:54.000   40.070532535  116.275024443    93.7151   1   9   0.0073   0.0064   0.0124  -0.0012  -0.0011  -0.0055  -0.00    6.9
2017/12/19 09:22:55.000   40.070532516  116.275024422    93.7140   1   9   0.0073   0.0065   0.0124  -0.0016  -0.0014  -0.0056  -0.00    6.9
